SCALERANK,NATSCALE,LABELRANK,FEATURECLA,NAME,NAMEPAR,NAMEALT,DIFFASCII,NAMEASCII,ADM0CAP,CAPALT,CAPIN,WORLDCITY,MEGACITY,SOV0NAME,SOV_A3,ADM0NAME,ADM0_A3,ADM1NAME,ISO_A2,NOTE,LATITUDE,LONGITUDE,CHANGED,NAMEDIFF,DIFFNOTE,POP_MAX,POP_MIN,POP_OTHER,RANK_MAX,RANK_MIN,GEONAMEID,MEGANAME,LS_NAME,LS_MATCH,CHECKME,MAX_POP10,MAX_POP20,MAX_POP50,MAX_POP300,MAX_POP310,MAX_NATSCA,MIN_AREAKM,MAX_AREAKM,MIN_AREAMI,MAX_AREAMI,MIN_PERKM,MAX_PERKM,MIN_PERMI,MAX_PERMI,MIN_BBXMIN,MAX_BBXMIN,MIN_BBXMAX,MAX_BBXMAX,MIN_BBYMIN,MAX_BBYMIN,MIN_BBYMAX,MAX_BBYMAX,MEAN_BBXC,MEAN_BBYC,COMPARE,GN_ASCII,FEATURE_CL,FEATURE_CO,ADMIN1_COD,GN_POP,ELEVATION,GTOPO30,TIMEZONE,GEONAMESNO,UN_FID,UN_ADM0,UN_LAT,UN_LONG,POP1950,POP1955,POP1960,POP1965,POP1970,POP1975,POP1980,POP1985,POP1990,POP1995,POP2000,POP2005,POP2010,POP2015,POP2020,POP2025,POP2050,CITYALT,airport,time,valid,timetoairport
10,1,8,Admin-1 capital,Fray Bentos,,,0,Fray Bentos,0,0,,0,0,Uruguay,URY,Uruguay,URY,RRo Negro,UY,,-33.138999,-58.303997,4,1,Added missing admin-1 capital. Population from GeoNames.,23279,23279,0,7,7,3442568,,,0,0,0,0,0,0,0,0,0,0,0,0,0,0,0,0,0,0,0,0,0,0,0,0,0,0,0,Fray Bentos,P,PPL,12,23279,0,43,America/Montevideo,Geonames ascii name + lat.d + long.d matching.,0,,0,0,0,0,0,0,0,0,0,0,0,0,0,0,0,0,0,0,0,,AEP,22.60452766689487,false, 
10,1,8,Admin-1 capital,Colonia del Sacramento,,,0,Colonia del Sacramento,0,0,,0,0,Uruguay,URY,Uruguay,URY,Colonia,UY,,-34.479999,-57.840002,4,1,Added missing admin-1 capital. Population from GeoNames.,21714,21714,0,7,7,3443013,,,0,0,0,0,0,0,0,0,0,0,0,0,0,0,0,0,0,0,0,0,0,0,0,0,0,0,0,Colonia del Sacramento,P,PPL,4,21714,0,28,America/Montevideo,Geonames ascii name + lat.d + long.d matching.,0,,0,0,0,0,0,0,0,0,0,0,0,0,0,0,0,0,0,0,0,,AEP,22.60452766689487,false, 
10,1,8,Admin-1 capital,Trinidad,,,0,Trinidad,0,0,,0,0,Uruguay,URY,Uruguay,URY,Flores,UY,,-33.543999,-56.900997,4,1,Added missing admin-1 capital. Population from GeoNames.,21093,21093,0,7,7,3439749,,,0,0,0,0,0,0,0,0,0,0,0,0,0,0,0,0,0,0,0,0,0,0,0,0,0,0,0,Trinidad,P,PPL,6,21093,0,134,America/Montevideo,Geonames ascii name + lat.d + long.d matching.,0,,0,0,0,0,0,0,0,0,0,0,0,0,0,0,0,0,0,0,0,,MVD,25.154565472531484,true,2.7575 
10,1,8,Admin-1 capital,Bassar,,,0,Bassar,0,0,,0,0,Togo,TGO,Togo,TGO,Kara,TG,,9.261,0.789004,4,1,Added missing admin-1 capital. Population from GeoNames.,61845,61845,0,8,8,2367568,,,0,0,0,0,0,0,0,0,0,0,0,0,0,0,0,0,0,0,0,0,0,0,0,0,0,0,0,Bassar,P,PPL,5,61845,0,463,Africa/Lome,GeoNames match with ascii name + lat + long whole numbers.,0,,0,0,0,0,0,0,0,0,0,0,0,0,0,0,0,0,0,0,0,,TML,17.108775578041254,true,3.854444444444445 
10,1,8,Admin-1 capital,Florida,,,0,Florida,0,0,,0,0,Uruguay,URY,Uruguay,URY,Florida,UY,,-34.099002,-56.214998,4,1,Added missing admin-1 capital. Population from GeoNames.,32234,32234,0,7,7,3442585,,,0,0,0,0,0,0,0,0,0,0,0,0,0,0,0,0,0,0,0,0,0,0,0,0,0,0,0,Florida,P,PPL,7,32234,0,74,America/Montevideo,Geonames ascii name + lat.d + long.d matching.,0,,0,0,0,0,0,0,0,0,0,0,0,0,0,0,0,0,0,0,0,,MVD,23.904843250309263,true,1.5077777777777779 
10,1,8,Admin-1 capital,Canelones,,,0,Canelones,0,0,,0,0,Uruguay,URY,Uruguay,URY,Canelones,UY,,-34.538004,-56.284001,4,1,Added missing admin-1 capital. Population from GeoNames.,19698,19698,0,6,6,3443413,,,0,0,0,0,0,0,0,0,0,0,0,0,0,0,0,0,0,0,0,0,0,0,0,0,0,0,0,Canelones,P,PPL,2,19698,0,29,America/Montevideo,Geonames ascii name + lat.d + long.d matching.,0,,0,0,0,0,0,0,0,0,0,0,0,0,0,0,0,0,0,0,0,,MVD,23.229565472531483,true,0.8325 
10,1,8,Admin-1 capital,Sotouboua,,,0,Sotouboua,0,0,,0,0,Togo,TGO,Togo,TGO,Centre,TG,,8.557002,0.984996,4,1,Added missing admin-1 capital. Population from GeoNames.,21054,21054,0,7,7,2364079,,,0,0,0,0,0,0,0,0,0,0,0,0,0,0,0,0,0,0,0,0,0,0,0,0,0,0,0,Sotouboua,P,PPL,22,21054,0,374,Africa/Lome,Geonames ascii name + lat.d + long.d matching.,0,,0,0,0,0,0,0,0,0,0,0,0,0,0,0,0,0,0,0,0,,TML,19.073497800263475,true,5.819166666666666 
10,1,7,Admin-1 capital,Medenine,,,0,Medemine,0,0,,0,0,Tunisia,TUN,Tunisia,TUN,MUdenine,TN,,33.399999,10.4167,4,1,Added missing admin-1 capital.,61705,61705,0,8,8,-1,,,0,0,0,0,0,0,0,0,0,0,0,0,0,0,0,0,0,0,0,0,0,0,0,0,0,0,0,,,,0,0,0,0,,"No GeoNames match due to small population, not in GeoNames, or poor NEV placement.",0,,0,0,0,0,0,0,0,0,0,0,0,0,0,0,0,0,0,0,0,,GAE,8.59685365681868,true,0.9888888888888889 
10,1,7,Admin-1 capital,Kebili,,,0,Kebili,0,0,,0,0,Tunisia,TUN,Tunisia,TUN,Kebili,TN,,33.689997,8.971003,4,1,Added missing admin-1 capital. Population from GeoNames.,19875,19875,0,6,6,2468018,,,0,0,0,0,0,0,0,0,0,0,0,0,0,0,0,0,0,0,0,0,0,0,0,0,0,0,0,Kebili,P,PPL,31,19875,0,49,Africa/Tunis,Geonames ascii name + lat.d + long.d matching.,0,,0,0,0,0,0,0,0,0,0,0,0,0,0,0,0,0,0,0,0,,GAF,9.508572524146533,true,1.9547222222222222 
10,1,7,Admin-1 capital,Tataouine,,,0,Tataouine,0,0,,0,0,Tunisia,TUN,Tunisia,TUN,Tataouine,TN,,33.000003,10.466704,4,1,Added missing admin-1 capital. Population from GeoNames.,62577,62577,0,8,8,2464701,,,0,0,0,0,0,0,0,0,0,0,0,0,0,0,0,0,0,0,0,0,0,0,0,0,0,0,0,Tataouine,P,PPL,34,62577,0,247,Africa/Tunis,GeoNames match with ascii name + lat + long whole numbers.,0,,0,0,0,0,0,0,0,0,0,0,0,0,0,0,0,0,0,0,0,,DJE,9.770323765303026,true,2.171111111111111 
10,1,7,Admin-1 capital,L'Ariana,,,0,L'Ariana,0,0,,0,0,Tunisia,TUN,Tunisia,TUN,Manubah,TN,,36.866673,10.199998,4,1,Added missing admin-1 capital.,97687,97687,0,8,8,-1,,,0,0,0,0,0,0,0,0,0,0,0,0,0,0,0,0,0,0,0,0,0,0,0,0,0,0,0,,,,0,0,0,0,,,0,,0,0,0,0,0,0,0,0,0,0,0,0,0,0,0,0,0,0,0,,TUN,5.151191955936781,true,0.09472222222222222 
10,1,7,Admin-1 capital,Jendouba,,,0,Jendouba,0,0,,0,0,Tunisia,TUN,Tunisia,TUN,Jendouba,TN,,36.500004,8.749999,4,1,Added missing admin-1 capital. Population from GeoNames.,51408,51408,0,8,8,2470088,,,0,0,0,0,0,0,0,0,0,0,0,0,0,0,0,0,0,0,0,0,0,0,0,0,0,0,0,Jendouba,P,PPL,6,51408,0,141,Africa/Tunis,GeoNames match with ascii name + lat + long whole numbers.,0,,0,0,0,0,0,0,0,0,0,0,0,0,0,0,0,0,0,0,0,,AAE,9.132630774432862,true,2.198888888888889 
10,1,7,Admin-1 capital,Kasserine,,,0,Kasserine,0,0,,0,0,Tunisia,TUN,Tunisia,TUN,Kasssrine,TN,,35.216703,8.716699,4,1,Added missing admin-1 capital.,76243,76243,0,8,8,-1,,,0,0,0,0,0,0,0,0,0,0,0,0,0,0,0,0,0,0,0,0,0,0,0,0,0,0,0,,,,0,0,0,0,,"No GeoNames match due to small population, not in GeoNames, or poor NEV placement.",0,,0,0,0,0,0,0,0,0,0,0,0,0,0,0,0,0,0,0,0,,TEE,9.264542736352738,true,1.7033333333333334 
10,1,7,Admin-1 capital,Sdid Bouzid,,,0,Sdid Bouzid,0,0,,0,0,Tunisia,TUN,Tunisia,TUN,Sidi Bou Zid,TN,,35.016696,9.500004,4,1,Added missing admin-1 capital. Population from GeoNames.,42098,42098,0,7,7,2465840,,,0,0,0,0,0,0,0,0,0,0,0,0,0,0,0,0,0,0,0,0,0,0,0,0,0,0,0,Sidi Bouzid,P,PPL,33,42098,0,313,Africa/Tunis,GeoNames spatial join with similar names only.,0,,0,0,0,0,0,0,0,0,0,0,0,0,0,0,0,0,0,0,0,,GAF,9.286628079702087,true,1.7327777777777778 
10,1,7,Admin-1 capital,Siliana,,,0,Siliana,0,0,,0,0,Tunisia,TUN,Tunisia,TUN,Siliana,TN,,36.083304,9.383302,4,1,Added missing admin-1 capital. Population from GeoNames.,26960,26960,0,7,7,2465030,,,0,0,0,0,0,0,0,0,0,0,0,0,0,0,0,0,0,0,0,0,0,0,0,0,0,0,0,Siliana,P,PPL,22,26960,0,420,Africa/Tunis,Geonames ascii name + lat.d + long.d matching.,0,,0,0,0,0,0,0,0,0,0,0,0,0,0,0,0,0,0,0,0,,NBE,7.584682047453423,true,2.383888888888889 
10,1,7,Admin-1 capital,Monastir,,,0,Monasir,0,0,,0,0,Tunisia,TUN,Tunisia,TUN,Monastir,TN,,35.730702,10.767295,4,1,Added missing admin-1 capital.,71546,41400,0,8,7,-1,,,0,0,0,0,0,0,0,0,0,0,0,0,0,0,0,0,0,0,0,0,0,0,0,0,0,0,0,,,,0,0,0,0,,,0,,0,0,0,0,0,0,0,0,0,0,0,0,0,0,0,0,0,0,0,,MIR,7.4399171843871175,true,0.16611111111111113 
10,1,7,Admin-1 capital,Mahdia,,,0,Mahdia,0,0,,0,0,Tunisia,TUN,Tunisia,TUN,Mahdia,TN,,35.483913,11.040877,4,1,Added missing admin-1 capital.,45977,45977,0,7,7,-1,,,0,0,0,0,0,0,0,0,0,0,0,0,0,0,0,0,0,0,0,0,0,0,0,0,0,0,0,,,,0,0,0,0,,,0,,0,0,0,0,0,0,0,0,0,0,0,0,0,0,0,0,0,0,0,,MIR,8.237972739942673,true,0.9641666666666667 
10,1,7,Admin-1 capital,Zaghouan,,,0,Zaghouan,0,0,,0,0,Tunisia,TUN,Tunisia,TUN,Zaghouan,TN,,36.399996,10.146997,4,1,Added missing admin-1 capital. Population from GeoNames.,16911,16911,0,6,6,2464041,,,0,0,0,0,0,0,0,0,0,0,0,0,0,0,0,0,0,0,0,0,0,0,0,0,0,0,0,Zaghouan,P,PPL,37,16911,0,198,Africa/Tunis,GeoNames match with ascii name + lat + long whole numbers.,0,,0,0,0,0,0,0,0,0,0,0,0,0,0,0,0,0,0,0,0,,NBE,6.295793158564535,true,1.095 
10,1,5,Admin-1 capital,Tay Ninh,,,0,Tay Ninh,0,0,,0,0,Vietnam,VNM,Vietnam,VNM,TNy Ninh,VN,,11.322999,106.147,4,1,Added missing admin-1 capital. Population from GeoNames.,126370,126370,0,9,9,1566559,,,0,0,0,0,0,0,0,0,0,0,0,0,0,0,0,0,0,0,0,0,0,0,0,0,0,0,0,Tay Ninh,P,PPLA,33,0,0,20,Asia/Ho_Chi_Minh,GeoNames match general.,0,,0,0,0,0,0,0,0,0,0,0,0,0,0,0,0,0,0,0,0,,SGN,21.035563620516744,false, 
10,1,5,Admin-1 capital,Luan Chau,,,0,Luan Chau,0,0,,0,0,Vietnam,VNM,Vietnam,VNM,Vi?n Bi,VN,,21.740004,103.343005,4,1,Added missing admin-1 capital.,7335,7335,0,5,5,-1,,,0,0,0,0,0,0,0,0,0,0,0,0,0,0,0,0,0,0,0,0,0,0,0,0,0,0,0,,,,0,0,0,0,,"No GeoNames match due to small population, not in GeoNames, or poor NEV placement.",0,,0,0,0,0,0,0,0,0,0,0,0,0,0,0,0,0,0,0,0,,DIN,23.760439644539268,true,1.8919444444444444 
10,1,5,Admin-1 capital,Bac Kan,,,0,Bac Kan,0,0,,0,0,Vietnam,VNM,Vietnam,VNM,VNng B?c,VN,,22.133333,105.833333,4,0,Added missing admin-1 capital round B. Population from GeoNames.,29227,29227,0,7,7,1591538,,,0,0,0,0,0,0,0,0,0,0,0,0,0,0,0,0,0,0,0,0,0,0,0,0,0,0,0,Bac Kan,P,PPLA,72,0,0,222,Asia/Ho_Chi_Minh,GeoNames match general.,0,,0,0,0,0,0,0,0,0,0,0,0,0,0,0,0,0,0,0,0,,HAN,21.520467636032777,true,2.136388888888889 
10,1,5,Admin-1 capital,Son La,,,0,Son La,0,0,,0,0,Vietnam,VNM,Vietnam,VNM,Son La,VN,,21.328002,103.910005,4,1,Added missing admin-1 capital. Population from GeoNames.,19054,19054,0,6,6,1567681,,,0,0,0,0,0,0,0,0,0,0,0,0,0,0,0,0,0,0,0,0,0,0,0,0,0,0,0,Son La,P,PPLA,32,19054,0,673,Asia/Ho_Chi_Minh,GeoNames match general.,0,,0,0,0,0,0,0,0,0,0,0,0,0,0,0,0,0,0,0,0,,DIN,24.494606311205935,true,2.626111111111111 
10,1,5,Admin-1 capital,Lang Son,,,0,Lang Son,0,0,,0,0,Vietnam,VNM,Vietnam,VNM,L?ng Son,VN,,21.845997,106.757002,4,1,Added missing admin-1 capital. Population from GeoNames.,148000,148000,0,9,9,1576633,,,0,0,0,0,0,0,0,0,0,0,0,0,0,0,0,0,0,0,0,0,0,0,0,0,0,0,0,Lang Son,P,PPLA,39,0,0,303,Asia/Ho_Chi_Minh,GeoNames match general.,0,,0,0,0,0,0,0,0,0,0,0,0,0,0,0,0,0,0,0,0,,HPH,28.496360913749456,true,3.142777777777778 
10,1,5,Admin-1 capital,Tuyen Quang,,,0,Tuyen Quang,0,0,,0,0,Vietnam,VNM,Vietnam,VNM,Tuy,VN,,21.817998,105.211,4,1,Added missing admin-1 capital. Population from GeoNames.,36430,36430,0,7,7,1563287,,,0,0,0,0,0,0,0,0,0,0,0,0,0,0,0,0,0,0,0,0,0,0,0,0,0,0,0,Tuyen Quang,P,PPLA,68,36430,0,30,Asia/Ho_Chi_Minh,GeoNames match general.,0,,0,0,0,0,0,0,0,0,0,0,0,0,0,0,0,0,0,0,0,,HAN,21.081023191588333,true,1.6969444444444444 
10,1,5,Admin-1 capital,Yen Bai,,,0,Yen Bai,0,0,,0,0,Vietnam,VNM,Vietnam,VNM,YNn Bai,VN,,21.705003,104.875003,4,1,Added missing admin-1 capital. Population from GeoNames.,96540,96540,0,8,8,1560349,,,0,0,0,0,0,0,0,0,0,0,0,0,0,0,0,0,0,0,0,0,0,0,0,0,0,0,0,Yen Bai,P,PPLA,70,96540,0,46,Asia/Ho_Chi_Minh,GeoNames match general.,0,,0,0,0,0,0,0,0,0,0,0,0,0,0,0,0,0,0,0,0,,HAN,21.047134302699444,true,1.6630555555555555 
10,1,5,Admin-1 capital,Hai Duong,,,0,Hai Duong,0,0,,0,0,Vietnam,VNM,Vietnam,VNM,H?i Duong,VN,,20.942001,106.331005,4,1,Added missing admin-1 capital. Population from GeoNames.,58030,58030,0,8,8,1581326,,,0,0,0,0,0,0,0,0,0,0,0,0,0,0,0,0,0,0,0,0,0,0,0,0,0,0,0,Hai Duong,P,PPLA,79,58030,0,1,Asia/Ho_Chi_Minh,GeoNames match general.,0,,0,0,0,0,0,0,0,0,0,0,0,0,0,0,0,0,0,0,0,,HPH,26.218583135971677,true,0.865 
10,1,5,Admin-1 capital,Thai Binh,,,0,Thai Binh,0,0,,0,0,Vietnam,VNM,Vietnam,VNM,ThMi Bmnh,VN,,20.450304,106.33303,4,1,Added missing admin-1 capital.,210000,210000,0,10,10,-1,,,0,0,0,0,0,0,0,0,0,0,0,0,0,0,0,0,0,0,0,0,0,0,0,0,0,0,0,,,,0,0,0,0,,"No GeoNames match due to small population, not in GeoNames, or poor NEV placement.",0,,0,0,0,0,0,0,0,0,0,0,0,0,0,0,0,0,0,0,0,,HPH,26.557749802638345,true,1.2041666666666666 
10,1,5,Admin-1 capital,Tuy Hoa,,,0,Tuy Hoa,0,0,,0,0,Vietnam,VNM,Vietnam,VNM,PhM Yan,VN,,13.082004,109.315999,4,1,Added missing admin-1 capital. Population from GeoNames.,69596,69596,0,8,8,1563281,,,0,0,0,0,0,0,0,0,0,0,0,0,0,0,0,0,0,0,0,0,0,0,0,0,0,0,0,Tuy Hoa,P,PPLA,61,69596,0,2,Asia/Ho_Chi_Minh,GeoNames match general.,0,,0,0,0,0,0,0,0,0,0,0,0,0,0,0,0,0,0,0,0,,TBB,23.15806231531886,true,0.1361111111111111 
10,1,5,Admin-1 capital,Thu Dau Mot,,,0,Thu Dau Mot,0,0,,0,0,Vietnam,VNM,Vietnam,VNM,BNnh Duong,VN,,10.969074,106.652746,4,1,Added missing admin-1 capital. Population from GeoNames.,244277,244277,0,10,10,1565022,,,0,0,0,0,0,0,0,0,0,0,0,0,0,0,0,0,0,0,0,0,0,0,0,0,0,0,0,Thu Dau Mot,P,PPLA,75,0,0,20,Asia/Ho_Chi_Minh,GeoNames match general.,0,,0,0,0,0,0,0,0,0,0,0,0,0,0,0,0,0,0,0,0,,SGN,21.035563620516744,false, 
10,1,5,Admin-1 capital,Dong Ha,,,0,Dong Ha,0,0,,0,0,Vietnam,VNM,Vietnam,VNM,Qu?ng Tr?,VN,,16.849998,107.133301,4,1,Added missing admin-1 capital. Population from GeoNames.,17662,17662,0,6,6,1582926,,,0,0,0,0,0,0,0,0,0,0,0,0,0,0,0,0,0,0,0,0,0,0,0,0,0,0,0,Dong Ha,P,PPLA,64,17662,0,6,Asia/Ho_Chi_Minh,GeoNames match general.,0,,0,0,0,0,0,0,0,0,0,0,0,0,0,0,0,0,0,0,0,,HUI,23.59656843686884,true,1.2594444444444444 
10,1,5,Admin-1 capital,Cao Lanh,,,0,Cao Lanh,0,0,,0,0,Vietnam,VNM,Vietnam,VNM,V?ng Th,VN,,10.467,105.635998,4,1,Added missing admin-1 capital. Population from GeoNames.,149837,149837,0,9,9,1586151,,,0,0,0,0,0,0,0,0,0,0,0,0,0,0,0,0,0,0,0,0,0,0,0,0,0,0,0,Cao Lanh,P,PPLA,9,0,0,1,Asia/Ho_Chi_Minh,GeoNames match general.,0,,0,0,0,0,0,0,0,0,0,0,0,0,0,0,0,0,0,0,0,,VCA,23.447939845787722,false, 
10,1,5,Admin-1 capital,Truc Giang,,,0,Truc Giang,0,0,,0,0,Vietnam,VNM,Vietnam,VNM,B?n Tre,VN,,10.234998,106.374997,4,1,Added missing admin-1 capital. Population from GeoNames.,59442,59442,0,8,8,1587976,,,0,0,0,0,0,0,0,0,0,0,0,0,0,0,0,0,0,0,0,0,0,0,0,0,0,0,0,Ben Tre,P,PPLA,3,59442,0,1,Asia/Ho_Chi_Minh,GeoNames match general.,0,,0,0,0,0,0,0,0,0,0,0,0,0,0,0,0,0,0,0,0,,SGN,21.035563620516744,false, 
10,1,5,Admin-1 capital,Tra Vinh,,,0,Tra Vinh,0,0,,0,0,Vietnam,VNM,Vietnam,VNM,TrM Vinh,VN,,9.934002,106.334002,4,1,Added missing admin-1 capital.,131360,131360,0,9,9,-1,,,0,0,0,0,0,0,0,0,0,0,0,0,0,0,0,0,0,0,0,0,0,0,0,0,0,0,0,,,,0,0,0,0,,"No GeoNames match due to small population, not in GeoNames, or poor NEV placement.",0,,0,0,0,0,0,0,0,0,0,0,0,0,0,0,0,0,0,0,0,,VCA,23.447939845787722,false, 
10,1,5,Admin-1 capital,Vinh Long,,,0,Vinh Long,0,0,,0,0,Vietnam,VNM,Vietnam,VNM,Vinh Long,VN,,10.256004,105.964003,4,1,Added missing admin-1 capital. Population from GeoNames.,103314,103314,0,9,9,1562693,,,0,0,0,0,0,0,0,0,0,0,0,0,0,0,0,0,0,0,0,0,0,0,0,0,0,0,0,Vinh Long,P,PPLA,69,103314,0,1,Asia/Ho_Chi_Minh,GeoNames match general.,0,,0,0,0,0,0,0,0,0,0,0,0,0,0,0,0,0,0,0,0,,VCA,23.447939845787722,false, 
10,1,5,Admin-1 capital,Cao Bang,,,0,Cao Bang,0,0,,0,0,Vietnam,VNM,Vietnam,VNM,Cao B?ng,VN,,22.663998,106.268005,4,1,Added missing admin-1 capital. Population from GeoNames.,41112,41112,0,7,7,1586185,,,0,0,0,0,0,0,0,0,0,0,0,0,0,0,0,0,0,0,0,0,0,0,0,0,0,0,0,Cao Bang,P,PPLA,5,41112,0,197,Asia/Ho_Chi_Minh,GeoNames match general.,0,,0,0,0,0,0,0,0,0,0,0,0,0,0,0,0,0,0,0,0,,AEB,28.935184012651238,true,5.593055555555555 
10,1,8,Admin-1 capital,Yoro,,,0,Yoro,0,0,,0,0,Honduras,HND,Honduras,HND,Yoro,HN,,15.059997,-87.290001,4,1,Added missing admin-1 capital. Population from GeoNames.,15774,15774,0,6,6,3600195,,,0,0,0,0,0,0,0,0,0,0,0,0,0,0,0,0,0,0,0,0,0,0,0,0,0,0,0,Yoro,P,PPL,18,15774,0,661,America/Tegucigalpa,GeoNames match with ascii name + lat + long whole numbers.,0,,0,0,0,0,0,0,0,0,0,0,0,0,0,0,0,0,0,0,0,,SAP,20.824373613356425,true,2.641111111111111 
10,1,8,Admin-1 capital,La Esperanza,,,0,La Esperanza,0,0,,0,0,Honduras,HND,Honduras,HND,Intibucs,HN,,14.333004,-88.1667,4,1,Added missing admin-1 capital. Population from GeoNames.,5318,5318,0,5,5,3607966,,,0,0,0,0,0,0,0,0,0,0,0,0,0,0,0,0,0,0,0,0,0,0,0,0,0,0,0,La Esperanza,P,PPL,10,5318,0,1721,America/Tegucigalpa,Geonames ascii name + lat.d + long.d matching.,0,,0,0,0,0,0,0,0,0,0,0,0,0,0,0,0,0,0,0,0,,TGU,21.10252414652275,true,2.7616666666666663 
10,1,8,Admin-1 capital,La Paz,,,0,La Paz,0,0,,0,0,Honduras,HND,Honduras,HND,La Paz,HN,,14.319999,-87.684003,4,1,Added missing admin-1 capital. Population from GeoNames.,17555,17555,0,6,6,3607254,,,0,0,0,0,0,0,0,0,0,0,0,0,0,0,0,0,0,0,0,0,0,0,0,0,0,0,0,La Paz,P,PPL,12,17555,0,680,America/Tegucigalpa,Geonames ascii name + lat.d + long.d matching.,0,,0,0,0,0,0,0,0,0,0,0,0,0,0,0,0,0,0,0,0,,TGU,19.52030192430053,true,1.1794444444444445 
10,1,8,Admin-1 capital,Santa Barbara,,,0,Santa Barbara,0,0,,0,0,Honduras,HND,Honduras,HND,Santa Bsrbara,HN,,14.919003,-88.236,4,1,Added missing admin-1 capital. Population from GeoNames.,15119,15119,0,6,6,3601691,,,0,0,0,0,0,0,0,0,0,0,0,0,0,0,0,0,0,0,0,0,0,0,0,0,0,0,0,Santa Barbara,P,PPL,16,15119,0,264,America/Tegucigalpa,Geonames ascii name + lat.d + long.d matching.,0,,0,0,0,0,0,0,0,0,0,0,0,0,0,0,0,0,0,0,0,,SAP,20.06992916891198,true,1.8866666666666667 
10,1,8,Admin-1 capital,Yuscaran,,,0,Yuscaran,0,0,,0,0,Honduras,HND,Honduras,HND,El Parasso,HN,,13.943997,-86.850999,4,1,Added missing admin-1 capital. Population from GeoNames.,2371,2371,0,4,4,3600165,,,0,0,0,0,0,0,0,0,0,0,0,0,0,0,0,0,0,0,0,0,0,0,0,0,0,0,0,Yuscaran,P,PPL,7,2371,0,1008,America/Tegucigalpa,GeoNames match with ascii name + lat + long whole numbers.,0,,0,0,0,0,0,0,0,0,0,0,0,0,0,0,0,0,0,0,0,,TGU,19.501135257633862,true,1.1602777777777777 
10,1,8,Admin-1 capital,Nueva Ocotepeque,,,0,Nueva Ocotepeque,0,0,,0,0,Honduras,HND,Honduras,HND,Ocotepeque,HN,,14.436999,-89.181999,4,1,Added missing admin-1 capital. Population from GeoNames.,8780,8780,0,5,5,3604384,,,0,0,0,0,0,0,0,0,0,0,0,0,0,0,0,0,0,0,0,0,0,0,0,0,0,0,0,Nueva Ocotepeque,P,PPL,14,8780,0,820,America/Tegucigalpa,Geonames ascii name + lat.d + long.d matching.,0,,0,0,0,0,0,0,0,0,0,0,0,0,0,0,0,0,0,0,0,,SAL,20.592386185878134,true,1.9916666666666667 
10,1,8,Admin-1 capital,Gracias,,,0,Gracias,0,0,,0,0,Honduras,HND,Honduras,HND,Lempira,HN,,14.583303,-88.583301,4,1,Added missing admin-1 capital. Population from GeoNames.,7909,7909,0,5,5,3609586,,,0,0,0,0,0,0,0,0,0,0,0,0,0,0,0,0,0,0,0,0,0,0,0,0,0,0,0,Gracias,P,PPL,13,7909,0,803,America/Tegucigalpa,Geonames ascii name + lat.d + long.d matching.,0,,0,0,0,0,0,0,0,0,0,0,0,0,0,0,0,0,0,0,0,,SAP,21.59131805780087,true,3.4080555555555554 
10,1,8,Admin-1 capital,Port-De-Paix,,,0,Port-De-Paix,0,0,,0,0,Haiti,HTI,Haiti,HTI,Nord-Ouest,HT,,19.93176,-72.829485,4,1,Added missing admin-1 capital. Population from GeoNames.,34657,34657,0,7,7,3740016,,,0,0,0,0,0,0,0,0,0,0,0,0,0,0,0,0,0,0,0,0,0,0,0,0,0,0,0,Ti Port-de-Paix,P,PPL,3,34657,0,83,America/Port-au-Prince,GeoNames spatial join with similar names only.,0,,0,0,0,0,0,0,0,0,0,0,0,0,0,0,0,0,0,0,0,,CAP,20.386187696639,false, 
10,1,8,Admin-1 capital,Jeremie,,,0,Jeremie,0,0,,0,0,Haiti,HTI,Haiti,HTI,Grand'Anse,HT,,18.633935,-74.118425,4,1,Added missing admin-1 capital. Population from GeoNames.,30917,30917,0,7,7,3723593,,,0,0,0,0,0,0,0,0,0,0,0,0,0,0,0,0,0,0,0,0,0,0,0,0,0,0,0,Jeremie,P,PPL,14,30917,0,17,America/Port-au-Prince,Geonames ascii name + lat.d + long.d matching.,0,,0,0,0,0,0,0,0,0,0,0,0,0,0,0,0,0,0,0,0,,PAP,23.076001217779442,true,4.904166666666667 
10,1,8,Admin-1 capital,Hinche,,,0,Hinche,0,0,,0,0,Haiti,HTI,Haiti,HTI,Centre,HT,,19.143,-72.003996,4,1,Added missing admin-1 capital. Population from GeoNames.,18590,18590,0,6,6,3723841,,,0,0,0,0,0,0,0,0,0,0,0,0,0,0,0,0,0,0,0,0,0,0,0,0,0,0,0,Hinche,P,PPL,7,18590,0,230,America/Port-au-Prince,GeoNames match with ascii name + lat + long whole numbers.,0,,0,0,0,0,0,0,0,0,0,0,0,0,0,0,0,0,0,0,0,,CAP,20.386187696639,false, 
10,1,5,Admin-1 capital,Kirklareli,,,0,Kirklareli,0,0,,0,0,Turkey,TUR,Turkey,TUR,Kirklareli,TR,,41.742999,27.226,4,1,Added missing admin-1 capital. Population from GeoNames.,58223,58223,0,8,8,743166,,,0,0,0,0,0,0,0,0,0,0,0,0,0,0,0,0,0,0,0,0,0,0,0,0,0,0,0,Kirklareli,P,PPL,39,58223,0,190,Europe/Istanbul,Geonames ascii name + lat.d + long.d matching.,0,,0,0,0,0,0,0,0,0,0,0,0,0,0,0,0,0,0,0,0,,TEQ,11.48334322719689,false, 
10,1,8,Admin-1 capital,Fort-Liberte,,,0,Fort-Liberte,0,0,,0,0,Haiti,HTI,Haiti,HTI,Nord-Est,HT,,19.665567,-71.84484,4,1,Added missing admin-1 capital. Population from GeoNames.,11465,11465,0,6,6,3725170,,,0,0,0,0,0,0,0,0,0,0,0,0,0,0,0,0,0,0,0,0,0,0,0,0,0,0,0,Fort Liberte,P,PPL,10,11465,0,1,America/Port-au-Prince,GeoNames spatial join with similar names only.,0,,0,0,0,0,0,0,0,0,0,0,0,0,0,0,0,0,0,0,0,,CAP,20.386187696639,false, 
10,1,8,Admin-1 capital,Jacmel,,,0,Jacmel,0,0,,0,0,Haiti,HTI,Haiti,HTI,Sud-Est,HT,,18.234999,-72.537003,4,1,Added missing admin-1 capital. Population from GeoNames.,33563,33563,0,7,7,3723779,,,0,0,0,0,0,0,0,0,0,0,0,0,0,0,0,0,0,0,0,0,0,0,0,0,0,0,0,Jacmel,P,PPL,13,33563,0,29,America/Port-au-Prince,Geonames ascii name + lat.d + long.d matching.,0,,0,0,0,0,0,0,0,0,0,0,0,0,0,0,0,0,0,0,0,,PAP,19.636834551112774,true,1.465 
10,1,5,Admin-1 capital,Bilecik,,,0,Bilecik,0,0,,0,0,Turkey,TUR,Turkey,TUR,Bilecik,TR,,40.149999,29.982997,4,1,Added missing admin-1 capital. Population from GeoNames.,40285,40285,0,7,7,750598,,,0,0,0,0,0,0,0,0,0,0,0,0,0,0,0,0,0,0,0,0,0,0,0,0,0,0,0,Bilecik,P,PPL,11,40285,0,447,Europe/Istanbul,Geonames ascii name + lat.d + long.d matching.,0,,0,0,0,0,0,0,0,0,0,0,0,0,0,0,0,0,0,0,0,,AOE,9.582767132014496,true,1.0725 
10,1,5,Admin-1 capital,Kastamonu,,,0,Kastamonu,0,0,,0,0,Turkey,TUR,Turkey,TUR,Kastamonu,TR,,41.389002,33.783003,4,1,Added missing admin-1 capital. Population from GeoNames.,70402,70402,0,8,8,743882,,,0,0,0,0,0,0,0,0,0,0,0,0,0,0,0,0,0,0,0,0,0,0,0,0,0,0,0,Kastamonu,P,PPL,37,70402,0,874,Europe/Istanbul,Geonames ascii name + lat.d + long.d matching.,0,,0,0,0,0,0,0,0,0,0,0,0,0,0,0,0,0,0,0,0,,KFS,9.029998244432957,true,0.14944444444444444 
10,1,5,Admin-1 capital,Sakarya,,,0,Sakarya,0,0,,0,0,Turkey,TUR,Turkey,TUR,Sakarya,TR,,40.766661,30.400003,4,1,Added missing admin-1 capital. Population from GeoNames.,286787,286787,0,10,10,752850,,,0,0,0,0,0,0,0,0,0,0,0,0,0,0,0,0,0,0,0,0,0,0,0,0,0,0,0,Sakarya,P,PPL,54,286787,0,48,Europe/Istanbul,Geonames ascii name + lat.d + long.d matching.,0,,0,0,0,0,0,0,0,0,0,0,0,0,0,0,0,0,0,0,0,,SAW,7.643498110793492,true,1.3972222222222221 
10,1,5,Admin-1 capital,Burdur,,,0,Burdur,0,0,,0,0,Turkey,TUR,Turkey,TUR,Burdur,TR,,37.71666,30.283336,4,1,Added missing admin-1 capital. Population from GeoNames.,66158,66158,0,8,8,320392,,,0,0,0,0,0,0,0,0,0,0,0,0,0,0,0,0,0,0,0,0,0,0,0,0,0,0,0,Burdur,P,PPL,15,66158,0,937,Europe/Istanbul,Geonames ascii name + lat.d + long.d matching.,0,,0,0,0,0,0,0,0,0,0,0,0,0,0,0,0,0,0,0,0,,ISE,9.290709689128779,true,0.48833333333333334 
10,1,5,Admin-1 capital,Nevsehir,,,0,Nevsehir,0,0,,0,0,Turkey,TUR,Turkey,TUR,Nevsehir,TR,,38.624004,34.723999,4,1,Added missing admin-1 capital. Population from GeoNames.,75527,75527,0,8,8,303831,,,0,0,0,0,0,0,0,0,0,0,0,0,0,0,0,0,0,0,0,0,0,0,0,0,0,0,0,Nevsehir,P,PPL,50,75527,0,1225,Europe/Istanbul,Geonames ascii name + lat.d + long.d matching.,0,,0,0,0,0,0,0,0,0,0,0,0,0,0,0,0,0,0,0,0,,NAV,9.52878023400847,true,0.44111111111111106 
10,1,5,Admin-1 capital,Kirsehir,,,0,Kirsehir,0,0,,0,0,Turkey,TUR,Turkey,TUR,Kirsehir,TR,,39.141999,34.171003,4,1,Added missing admin-1 capital. Population from GeoNames.,94336,94336,0,8,8,307515,,,0,0,0,0,0,0,0,0,0,0,0,0,0,0,0,0,0,0,0,0,0,0,0,0,0,0,0,Kirsehir,P,PPL,40,94336,0,1014,Europe/Istanbul,Geonames ascii name + lat.d + long.d matching.,0,,0,0,0,0,0,0,0,0,0,0,0,0,0,0,0,0,0,0,0,,NAV,10.192391345119582,true,1.1047222222222222 
10,1,5,Admin-1 capital,Antioch,,,0,Antioch,0,0,,0,0,Turkey,TUR,Turkey,TUR,Hatay,TR,,36.233334,36.116677,4,1,Added missing admin-1 capital. Population from GeoNames.,154803,154803,0,9,9,323779,,,0,0,0,0,0,0,0,0,0,0,0,0,0,0,0,0,0,0,0,0,0,0,0,0,0,0,0,Antioch,P,PPLA,31,154803,0,68,Europe/Istanbul,GeoNames match general.,0,,0,0,0,0,0,0,0,0,0,0,0,0,0,0,0,0,0,0,0,,HTY,9.966377007423654,true,0.4072222222222222 
10,1,5,Admin-1 capital,Giresun,,,0,Giresun,0,0,,0,0,Turkey,TUR,Turkey,TUR,Giresun,TR,,40.913001,38.390005,4,1,Added missing admin-1 capital. Population from GeoNames.,98864,98864,0,8,8,746881,,,0,0,0,0,0,0,0,0,0,0,0,0,0,0,0,0,0,0,0,0,0,0,0,0,0,0,0,Giresun,P,PPL,28,98864,0,-9999,Europe/Istanbul,Geonames ascii name + lat.d + long.d matching.,0,,0,0,0,0,0,0,0,0,0,0,0,0,0,0,0,0,0,0,0,,TZX,13.56803936465095,true,1.9144444444444444 
10,1,5,Admin-1 capital,Sinop,,,0,Sinop,0,0,,0,0,Turkey,TUR,Turkey,TUR,Sinop,TR,,42.022998,35.153001,4,1,Added missing admin-1 capital. Population from GeoNames.,34834,34834,0,7,7,739600,,,0,0,0,0,0,0,0,0,0,0,0,0,0,0,0,0,0,0,0,0,0,0,0,0,0,0,0,Sinop,P,PPL,57,34834,0,88,Europe/Istanbul,Geonames ascii name + lat.d + long.d matching.,0,,0,0,0,0,0,0,0,0,0,0,0,0,0,0,0,0,0,0,0,,SIC,46.458766358699584,false, 
10,1,5,Admin-1 capital,Bingol,,,0,Bingol,0,0,,0,0,Turkey,TUR,Turkey,TUR,Bingel,TR,,38.885004,40.498003,4,1,Added missing admin-1 capital. Population from GeoNames.,80568,80568,0,8,8,321082,,,0,0,0,0,0,0,0,0,0,0,0,0,0,0,0,0,0,0,0,0,0,0,0,0,0,0,0,Bingol,P,PPL,12,80568,0,1117,Europe/Istanbul,Geonames ascii name + lat.d + long.d matching.,0,,0,0,0,0,0,0,0,0,0,0,0,0,0,0,0,0,0,0,0,,BGG,12.15971240840755,true,0.3030555555555556 
10,1,5,Admin-1 capital,Tokat,,,0,Tokat,0,0,,0,0,Turkey,TUR,Turkey,TUR,Tokat,TR,,40.305996,36.563005,4,1,Added missing admin-1 capital. Population from GeoNames.,129702,129702,0,9,9,738743,,,0,0,0,0,0,0,0,0,0,0,0,0,0,0,0,0,0,0,0,0,0,0,0,0,0,0,0,Tokat,P,PPL,60,129702,0,705,Europe/Istanbul,Geonames ascii name + lat.d + long.d matching.,0,,0,0,0,0,0,0,0,0,0,0,0,0,0,0,0,0,0,0,0,,VAS,10.822072351971046,true,1.4849999999999999 
10,1,5,Admin-1 capital,Artvin,,,0,Coruh,0,0,,0,0,Turkey,TUR,Turkey,TUR,Artvin,TR,,41.183001,41.817997,4,1,Added missing admin-1 capital.,32272,23527,0,7,7,-1,,,0,0,0,0,0,0,0,0,0,0,0,0,0,0,0,0,0,0,0,0,0,0,0,0,0,0,0,,,,0,0,0,0,,,0,,0,0,0,0,0,0,0,0,0,0,0,0,0,0,0,0,0,0,0,,BUS,13.311680109694615,true,1.541388888888889 
10,1,5,Admin-1 capital,Bitlis,,,0,Bitlis,0,0,,0,0,Turkey,TUR,Turkey,TUR,Bitlis,TR,,38.394,42.122998,4,1,Added missing admin-1 capital. Population from GeoNames.,62811,43109,0,8,7,321025,,,0,0,0,0,0,0,0,0,0,0,0,0,0,0,0,0,0,0,0,0,0,0,0,0,0,0,0,Bitlis,P,PPLA,13,0,0,1673,Europe/Istanbul,GeoNames match general.,0,,0,0,0,0,0,0,0,0,0,0,0,0,0,0,0,0,0,0,0,,MSR,13.050243733202658,true,1.038888888888889 
10,1,5,Admin-1 capital,Kalangala,,,0,Kalangala,0,0,,0,0,Uganda,UGA,Uganda,UGA,Kalangala,UG,,-0.308889,32.225,4,0,Added missing admin-1 capital round B. Population from GeoNames.,5200,5200,0,5,5,232571,,,0,0,0,0,0,0,0,0,0,0,0,0,0,0,0,0,0,0,0,0,0,0,0,0,0,0,0,Kalangala,P,PPLA,36,0,0,1216,Africa/Kampala,GeoNames match general.,0,,0,0,0,0,0,0,0,0,0,0,0,0,0,0,0,0,0,0,0,,EBB,16.72542976555803,true,3.894722222222222 
10,1,5,Admin-1 capital,Nigde,,,0,Nigde,0,0,,0,0,Turkey,TUR,Turkey,TUR,Nigde,TR,,37.976004,34.694002,4,1,Added missing admin-1 capital. Population from GeoNames.,91039,91039,0,8,8,303827,,,0,0,0,0,0,0,0,0,0,0,0,0,0,0,0,0,0,0,0,0,0,0,0,0,0,0,0,Nigde,P,PPLA,73,91039,0,1269,Europe/Istanbul,GeoNames match general.,0,,0,0,0,0,0,0,0,0,0,0,0,0,0,0,0,0,0,0,0,,NAV,10.594891345119581,true,1.5072222222222222 
10,1,5,Admin-1 capital,Yozgat,,,0,Yozgat,0,0,,0,0,Turkey,TUR,Turkey,TUR,Yozgat,TR,,39.817998,34.814997,4,1,Added missing admin-1 capital. Population from GeoNames.,87881,87881,0,8,8,296562,,,0,0,0,0,0,0,0,0,0,0,0,0,0,0,0,0,0,0,0,0,0,0,0,0,0,0,0,Yozgat,P,PPL,66,87881,0,1297,Europe/Istanbul,Geonames ascii name + lat.d + long.d matching.,0,,0,0,0,0,0,0,0,0,0,0,0,0,0,0,0,0,0,0,0,,NAV,11.854613567341804,true,2.766944444444445 
10,1,5,Admin-1 capital,Gumushane,,,0,Gumushane,0,0,,0,0,Turkey,TUR,Turkey,TUR,GUm,TR,,40.464,39.484,4,1,Added missing admin-1 capital. Population from GeoNames.,32250,32250,0,7,7,746425,,,0,0,0,0,0,0,0,0,0,0,0,0,0,0,0,0,0,0,0,0,0,0,0,0,0,0,0,Gumushane,P,PPL,69,32250,0,1289,Europe/Istanbul,Geonames ascii name + lat.d + long.d matching.,0,,0,0,0,0,0,0,0,0,0,0,0,0,0,0,0,0,0,0,0,,TZX,13.742761586873172,true,2.0891666666666664 
10,1,5,Admin-1 capital,Siirt,,,0,Siirt,0,0,,0,0,Turkey,TUR,Turkey,TUR,Siirt,TR,,37.944,41.932999,4,1,Added missing admin-1 capital. Population from GeoNames.,114034,114034,0,9,9,300822,,,0,0,0,0,0,0,0,0,0,0,0,0,0,0,0,0,0,0,0,0,0,0,0,0,0,0,0,Siirt,P,PPLA,74,114034,0,866,Europe/Istanbul,GeoNames match general.,0,,0,0,0,0,0,0,0,0,0,0,0,0,0,0,0,0,0,0,0,,BAL,13.22558003376284,true,1.2425 
10,1,5,Admin-1 capital,Tunceli,,,0,Tunceli,0,0,,0,0,Turkey,TUR,Turkey,TUR,Tunceli,TR,,39.1167,39.533302,4,1,Added missing admin-1 capital. Population from GeoNames.,29062,29062,0,7,7,298846,,,0,0,0,0,0,0,0,0,0,0,0,0,0,0,0,0,0,0,0,0,0,0,0,0,0,0,0,Tunceli,P,PPL,62,29062,0,1087,Europe/Istanbul,Geonames ascii name + lat.d + long.d matching.,0,,0,0,0,0,0,0,0,0,0,0,0,0,0,0,0,0,0,0,0,,EZS,13.403912467790393,true,1.713611111111111 
10,1,5,Admin-1 capital,Kumi,,,0,Kumi,0,0,,0,0,Uganda,UGA,Uganda,UGA,Kumi,UG,,1.460833,33.936111,4,0,Added missing admin-1 capital round B. Population from GeoNames.,13000,13000,0,6,6,230584,,,0,0,0,0,0,0,0,0,0,0,0,0,0,0,0,0,0,0,0,0,0,0,0,0,0,0,0,Kumi,P,PPLA,46,0,0,1148,Africa/Kampala,GeoNames match general.,0,,0,0,0,0,0,0,0,0,0,0,0,0,0,0,0,0,0,0,0,,KTL,24.036962327114196,true,3.301111111111111 
10,1,5,Admin-1 capital,Kaberamaido,,,0,Kaberamaido,0,0,,0,0,Uganda,UGA,Uganda,UGA,Kaberamaido,UG,,1.738889,33.159444,4,0,Added missing admin-1 capital round B. Population from GeoNames.,3400,3400,0,4,4,233019,,,0,0,0,0,0,0,0,0,0,0,0,0,0,0,0,0,0,0,0,0,0,0,0,0,0,0,0,Kaberamaido,P,PPLA,80,0,0,1050,Africa/Kampala,GeoNames match general.,0,,0,0,0,0,0,0,0,0,0,0,0,0,0,0,0,0,0,0,0,,PAF,20.083577643868153,true,4.794722222222222 
10,1,5,Admin-1 capital,Kayunga,,,0,Kayunga,0,0,,0,0,Uganda,UGA,Uganda,UGA,Kayunga,UG,,0.7025,32.888611,4,0,Added missing admin-1 capital round B. Population from GeoNames.,21704,21704,0,7,7,231696,,,0,0,0,0,0,0,0,0,0,0,0,0,0,0,0,0,0,0,0,0,0,0,0,0,0,0,0,Kayunga,P,PPLA,83,21704,0,1063,Africa/Kampala,GeoNames match general.,0,,0,0,0,0,0,0,0,0,0,0,0,0,0,0,0,0,0,0,0,,EBB,14.65654087666914,true,1.8258333333333332 
10,1,5,Admin-1 capital,Iganga,,,0,Iganga,0,0,,0,0,Uganda,UGA,Uganda,UGA,Iganga,UG,,0.609167,33.468611,4,0,Added missing admin-1 capital round B. Population from GeoNames.,45024,45024,0,7,7,233275,,,0,0,0,0,0,0,0,0,0,0,0,0,0,0,0,0,0,0,0,0,0,0,0,0,0,0,0,Iganga,P,PPLA,78,45024,0,1082,Africa/Kampala,GeoNames match general.,0,,0,0,0,0,0,0,0,0,0,0,0,0,0,0,0,0,0,0,0,,EBB,14.942929765558029,true,2.1122222222222224 
10,1,5,Admin-1 capital,Kamuli,,,0,Kamuli,0,0,,0,0,Uganda,UGA,Uganda,UGA,Kamuli,UG,,0.947222,33.119722,4,0,Added missing admin-1 capital round B. Population from GeoNames.,12764,12764,0,6,6,232397,,,0,0,0,0,0,0,0,0,0,0,0,0,0,0,0,0,0,0,0,0,0,0,0,0,0,0,0,Kamuli,P,PPLA,38,12764,0,1127,Africa/Kampala,GeoNames match general.,0,,0,0,0,0,0,0,0,0,0,0,0,0,0,0,0,0,0,0,0,,EBB,15.472096432224696,true,2.641388888888889 
10,1,5,Admin-1 capital,Pallisa,,,0,Pallisa,0,0,,0,0,Uganda,UGA,Uganda,UGA,Pallisa,UG,,1.145,33.709444,4,0,Added missing admin-1 capital round B. Population from GeoNames.,30745,30745,0,7,7,226823,,,0,0,0,0,0,0,0,0,0,0,0,0,0,0,0,0,0,0,0,0,0,0,0,0,0,0,0,Pallisa,P,PPLA,60,30745,0,1043,Africa/Kampala,GeoNames match general.,0,,0,0,0,0,0,0,0,0,0,0,0,0,0,0,0,0,0,0,0,,KTL,24.07862899378086,true,3.3427777777777776 
10,1,5,Admin-1 capital,Mpigi,,,0,Mpigi,0,0,,0,0,Uganda,UGA,Uganda,UGA,Mpigi,UG,,0.225,32.313611,4,0,Added missing admin-1 capital round B. Population from GeoNames.,11082,11082,0,6,6,229024,,,0,0,0,0,0,0,0,0,0,0,0,0,0,0,0,0,0,0,0,0,0,0,0,0,0,0,0,Mpigi,P,PPLA,89,11082,0,1217,Africa/Kampala,GeoNames match general.,0,,0,0,0,0,0,0,0,0,0,0,0,0,0,0,0,0,0,0,0,,EBB,13.748763098891363,true,0.9180555555555556 
10,1,5,Admin-1 capital,Adjumani,,,0,Adjumani,0,0,,0,0,Uganda,UGA,Uganda,UGA,Adjumani,UG,,3.361389,31.809722,4,0,Added missing admin-1 capital round B. Population from GeoNames.,34700,34700,0,7,7,235489,,,0,0,0,0,0,0,0,0,0,0,0,0,0,0,0,0,0,0,0,0,0,0,0,0,0,0,0,Adjumani,P,PPLA,65,0,0,762,Africa/Kampala,GeoNames match general.,0,,0,0,0,0,0,0,0,0,0,0,0,0,0,0,0,0,0,0,0,,RUA,18.990714720249407,true,3.5349999999999997 
10,1,5,Admin-1 capital,Nebbi,,,0,Nebbi,0,0,,0,0,Uganda,UGA,Uganda,UGA,Nebbi,UG,,2.475833,31.1025,4,0,Added missing admin-1 capital round B. Population from GeoNames.,30354,30354,0,7,7,227904,,,0,0,0,0,0,0,0,0,0,0,0,0,0,0,0,0,0,0,0,0,0,0,0,0,0,0,0,Nebbi,P,PPLA,58,30354,0,1002,Africa/Kampala,GeoNames match general.,0,,0,0,0,0,0,0,0,0,0,0,0,0,0,0,0,0,0,0,0,,PAF,16.809410977201487,true,1.5205555555555557 
10,1,5,Admin-1 capital,Nakasongola,,,0,Nakasongola,0,0,,0,0,Uganda,UGA,Uganda,UGA,Nakasongola,UG,,1.308889,32.456389,4,0,Added missing admin-1 capital round B. Population from GeoNames.,6921,6921,0,5,5,228418,,,0,0,0,0,0,0,0,0,0,0,0,0,0,0,0,0,0,0,0,0,0,0,0,0,0,0,0,Nakasongola,P,PPLA,73,6921,0,1130,Africa/Kampala,GeoNames match general.,0,,0,0,0,0,0,0,0,0,0,0,0,0,0,0,0,0,0,0,0,,EBB,15.098207543335807,true,2.2675 
10,1,5,Admin-1 capital,Kiboga,,,0,Kiboga,0,0,,0,0,Uganda,UGA,Uganda,UGA,Kiboga,UG,,0.916111,31.774167,4,0,Added missing admin-1 capital round B. Population from GeoNames.,14512,14512,0,6,6,231550,,,0,0,0,0,0,0,0,0,0,0,0,0,0,0,0,0,0,0,0,0,0,0,0,0,0,0,0,Kiboga,P,PPLA,42,14512,0,1159,Africa/Kampala,GeoNames match general.,0,,0,0,0,0,0,0,0,0,0,0,0,0,0,0,0,0,0,0,0,,EBB,15.283763098891363,true,2.4530555555555558 
10,1,5,Admin-1 region capital,Bombo,,,0,Bombo,0,0,,0,0,Uganda,UGA,Uganda,UGA,Bamunanika,UG,,0.583299,32.5333,4,1,Added missing admin-1 capital. Changed feature to Admin-0 region capital.,75000,21000,0,8,7,-1,,,0,0,0,0,0,0,0,0,0,0,0,0,0,0,0,0,0,0,0,0,0,0,0,0,0,0,0,,,,0,0,0,0,,"No GeoNames match due to small population, not in GeoNames, or poor NEV placement.",0,,0,0,0,0,0,0,0,0,0,0,0,0,0,0,0,0,0,0,0,,EBB,13.931818654446918,true,1.1011111111111112 
10,1,5,Admin-1 capital,Masindi,,,0,Masindi,0,0,,0,0,Uganda,UGA,Uganda,UGA,Masindi,UG,,1.674444,31.715,4,0,Added missing admin-1 capital round B. Population from GeoNames.,31486,31486,0,7,7,229362,,,0,0,0,0,0,0,0,0,0,0,0,0,0,0,0,0,0,0,0,0,0,0,0,0,0,0,0,Masindi,P,PPLA,50,31486,0,1227,Africa/Kampala,GeoNames match general.,0,,0,0,0,0,0,0,0,0,0,0,0,0,0,0,0,0,0,0,0,,PAF,17.785799866090375,true,2.4969444444444444 
10,1,5,Admin-1 region capital,Fort Portal,,,0,Fort Portal,0,0,,0,0,Uganda,UGA,Uganda,UGA,Kabarole,UG,,0.671004,30.275002,4,1,Added missing admin-1 capital. Changed feature to Admin-0 region capital. Population from GeoNames.,42670,42670,0,7,7,233476,,,0,0,0,0,0,0,0,0,0,0,0,0,0,0,0,0,0,0,0,0,0,0,0,0,0,0,0,Fort Portal,P,PPLA,79,42670,0,1535,Africa/Kampala,Geonames ascii name + lat.d + long.d matching.,0,,0,0,0,0,0,0,0,0,0,0,0,0,0,0,0,0,0,0,0,,BUX,30.582453956950935,true,6.711666666666667 
10,1,5,Admin-1 capital,Sironko,,,0,Sironko,0,0,,0,0,Uganda,UGA,Uganda,UGA,Budadiri,UG,,1.25,34.3,4,0,Added missing admin-1 capital round B. Population from GeoNames.,14100,14100,0,6,6,448228,,,0,0,0,0,0,0,0,0,0,0,0,0,0,0,0,0,0,0,0,0,0,0,0,0,0,0,0,Sironko,P,PPLA,94,0,0,1477,Africa/Kampala,GeoNames match general.,0,,0,0,0,0,0,0,0,0,0,0,0,0,0,0,0,0,0,0,0,,KTL,23.84640677155864,true,3.1105555555555555 
10,1,5,Admin-1 capital,Kibale,,,0,Kibale,0,0,,0,0,Uganda,UGA,Uganda,UGA,Kibale,UG,,0.8,31.066667,4,0,Added missing admin-1 capital round B. Population from GeoNames.,5200,5200,0,5,5,231617,,,0,0,0,0,0,0,0,0,0,0,0,0,0,0,0,0,0,0,0,0,0,0,0,0,0,0,0,Kibale,P,PPLA,41,5200,0,1413,Africa/Kampala,GeoNames match general.,0,,0,0,0,0,0,0,0,0,0,0,0,0,0,0,0,0,0,0,0,,BUX,32.88328729028427,true,9.0125 
10,1,5,Admin-1 capital,Busia,,,0,Busia,0,0,,0,0,Uganda,UGA,Uganda,UGA,Busia,UG,,0.454444,34.075833,4,0,Added missing admin-1 capital round B. Population from GeoNames.,47100,47100,0,7,7,234077,,,0,0,0,0,0,0,0,0,0,0,0,0,0,0,0,0,0,0,0,0,0,0,0,0,0,0,0,Busia,P,PPLA,67,0,0,1198,Africa/Kampala,GeoNames match general.,0,,0,0,0,0,0,0,0,0,0,0,0,0,0,0,0,0,0,0,0,,KIS,17.396957289230357,true,1.5263888888888888 
10,1,5,Admin-1 capital,Katakwi,,,0,Katakwi,0,0,,0,0,Uganda,UGA,Uganda,UGA,Usuk,UG,,1.891111,33.966111,4,0,Added missing admin-1 capital round B. Population from GeoNames.,8400,8400,0,5,5,231947,,,0,0,0,0,0,0,0,0,0,0,0,0,0,0,0,0,0,0,0,0,0,0,0,0,0,0,0,Katakwi,P,PPLA,69,0,0,1107,Africa/Kampala,GeoNames match general.,0,,0,0,0,0,0,0,0,0,0,0,0,0,0,0,0,0,0,0,0,,KTL,25.338628993780862,true,4.602777777777778 
10,1,6,Admin-1 capital,Veszprem,,,0,Veszprem,0,0,,0,0,Hungary,HUN,Hungary,HUN,Veszprym,HU,,47.090997,17.911,4,1,Added missing admin-1 capital. Population from GeoNames.,62023,62023,0,8,8,3042929,,,0,0,0,0,0,0,0,0,0,0,0,0,0,0,0,0,0,0,0,0,0,0,0,0,0,0,0,Veszprem,P,PPLA,23,62023,0,269,Europe/Budapest,GeoNames match general.,0,,0,0,0,0,0,0,0,0,0,0,0,0,0,0,0,0,0,0,0,,BUD,6.008315947985804,true,1.5341666666666667 
10,1,6,Admin-1 capital,Zalaegerszeg,,,0,Zalaegerszeg,0,0,,0,0,Hungary,HUN,Hungary,HUN,Zala,HU,,46.844001,16.84,4,1,Added missing admin-1 capital. Population from GeoNames.,61898,61898,0,8,8,3042638,,,0,0,0,0,0,0,0,0,0,0,0,0,0,0,0,0,0,0,0,0,0,0,0,0,0,0,0,Zalaegerszeg,P,PPLA,24,61898,0,167,Europe/Budapest,GeoNames match general.,0,,0,0,0,0,0,0,0,0,0,0,0,0,0,0,0,0,0,0,0,,GRZ,7.9411314170212925,true,1.856388888888889 
10,1,6,Admin-1 capital,Tatabanya,,,0,Tatabanya,0,0,,0,0,Hungary,HUN,Hungary,HUN,Kom,HU,,47.549997,18.433,4,1,Added missing admin-1 capital. Population from GeoNames.,70541,70541,0,8,8,3044082,,,0,0,0,0,0,0,0,0,0,0,0,0,0,0,0,0,0,0,0,0,0,0,0,0,0,0,0,Tatabanya,P,PPLA,12,70541,0,157,Europe/Budapest,GeoNames match general.,0,,0,0,0,0,0,0,0,0,0,0,0,0,0,0,0,0,0,0,0,,BUD,5.466371503541359,true,0.9922222222222222 
10,1,6,Admin-1 capital,Szekszard,,,0,Szekszard,0,0,,0,0,Hungary,HUN,Hungary,HUN,Tolna,HU,,46.343997,18.712999,4,1,Added missing admin-1 capital. Population from GeoNames.,34174,34174,0,7,7,3044760,,,0,0,0,0,0,0,0,0,0,0,0,0,0,0,0,0,0,0,0,0,0,0,0,0,0,0,0,Szekszard,P,PPLA,21,34174,0,84,Europe/Budapest,GeoNames match general.,0,,0,0,0,0,0,0,0,0,0,0,0,0,0,0,0,0,0,0,0,,OSI,6.314544018855546,true,1.713611111111111 
10,1,6,Admin-1 capital,Salgotarjan,,,0,Salgotarjan,0,0,,0,0,Hungary,HUN,Hungary,HUN,NUgrad,HU,,48.105,19.826002,4,1,Added missing admin-1 capital. Population from GeoNames.,39640,39640,0,7,7,3045643,,,0,0,0,0,0,0,0,0,0,0,0,0,0,0,0,0,0,0,0,0,0,0,0,0,0,0,0,Salgotarjan,P,PPLA,14,39640,0,298,Europe/Budapest,GeoNames match general.,0,,0,0,0,0,0,0,0,0,0,0,0,0,0,0,0,0,0,0,0,,BUD,6.0541492813191375,true,1.5799999999999998 
10,1,6,Admin-1 capital,Bekescsaba,,,0,Bekescsaba,0,0,,0,0,Hungary,HUN,Hungary,HUN,BUk,HU,,46.672002,21.101005,4,1,Added missing admin-1 capital. Population from GeoNames.,65206,65206,0,8,8,722437,,,0,0,0,0,0,0,0,0,0,0,0,0,0,0,0,0,0,0,0,0,0,0,0,0,0,0,0,Bekescsaba,P,PPLA,3,65206,0,90,Europe/Budapest,GeoNames match general.,0,,0,0,0,0,0,0,0,0,0,0,0,0,0,0,0,0,0,0,0,,ARW,7.133635919091746,false, 
10,1,6,Admin-1 capital,Eger,,,0,Eger,0,0,,0,0,Hungary,HUN,Hungary,HUN,Heves,HU,,47.895003,20.383003,4,1,Added missing admin-1 capital. Population from GeoNames.,56647,56647,0,8,8,721239,,,0,0,0,0,0,0,0,0,0,0,0,0,0,0,0,0,0,0,0,0,0,0,0,0,0,0,0,Eger,P,PPLA,11,56647,0,169,Europe/Budapest,GeoNames match general.,0,,0,0,0,0,0,0,0,0,0,0,0,0,0,0,0,0,0,0,0,,BUD,6.019149281319137,true,1.5450000000000002 
10,1,5,Admin-1 capital,Ntungamo,,,0,Ntungamo,0,0,,0,0,Uganda,UGA,Uganda,UGA,Ntungamo,UG,,-0.879444,30.264167,4,0,Added missing admin-1 capital round B. Population from GeoNames.,16400,16400,0,6,6,227593,,,0,0,0,0,0,0,0,0,0,0,0,0,0,0,0,0,0,0,0,0,0,0,0,0,0,0,0,Ntungamo,P,PPLA,59,0,0,1393,Africa/Kampala,GeoNames match general.,0,,0,0,0,0,0,0,0,0,0,0,0,0,0,0,0,0,0,0,0,,KGL,17.652467257493214,true,2.4724999999999997 
10,1,5,Admin-1 capital,Kisoro,,,0,Kisoro,0,0,,0,0,Uganda,UGA,Uganda,UGA,Kisoro,UG,,-1.353889,29.698333,4,0,Added missing admin-1 capital round B. Population from GeoNames.,12900,12900,0,6,6,230993,,,0,0,0,0,0,0,0,0,0,0,0,0,0,0,0,0,0,0,0,0,0,0,0,0,0,0,0,Kisoro,P,PPLA,43,0,0,2687,Africa/Kampala,GeoNames match general.,0,,0,0,0,0,0,0,0,0,0,0,0,0,0,0,0,0,0,0,0,,GOM,23.33935402898736,false, 
10,1,0,Admin-1 capital,Gikongoro,,,0,Gikongoro,0,0,,0,0,Rwanda,RWA,Rwanda,RWA,Southern,RW,,-2.483298,29.566702,4,1,Added missing admin-1 capital. Population from GeoNames.,15000,15000,0,6,6,202239,,,0,0,0,0,0,0,0,0,0,0,0,0,0,0,0,0,0,0,0,0,0,0,0,0,0,0,0,Gikongoro,P,PPLA,15,0,0,1796,Africa/Kigali,GeoNames match general.,0,,0,0,0,0,0,0,0,0,0,0,0,0,0,0,0,0,0,0,0,,KME,17.425686744324842,false, 
10,1,0,Admin-1 capital,Kibuye,,,0,Kibuye,0,0,,0,0,Rwanda,RWA,Rwanda,RWA,Western,RW,,-2.050002,29.35,4,1,Added missing admin-1 capital. Population from GeoNames.,48024,48024,0,7,7,202065,,,0,0,0,0,0,0,0,0,0,0,0,0,0,0,0,0,0,0,0,0,0,0,0,0,0,0,0,Kibuye,P,PPLA,8,48024,0,1463,Africa/Kigali,GeoNames match general.,0,,0,0,0,0,0,0,0,0,0,0,0,0,0,0,0,0,0,0,0,,GOM,23.33935402898736,false, 
10,1,0,Admin-1 capital,Kibungo,,,0,Kibungo,0,0,,0,0,Rwanda,RWA,Rwanda,RWA,Eastern,RW,,-2.166696,30.533302,4,1,Added missing admin-1 capital. Population from GeoNames.,46240,46240,0,7,7,202068,,,0,0,0,0,0,0,0,0,0,0,0,0,0,0,0,0,0,0,0,0,0,0,0,0,0,0,0,Kibungo,P,PPLA,7,46240,0,1585,Africa/Kigali,GeoNames match general.,0,,0,0,0,0,0,0,0,0,0,0,0,0,0,0,0,0,0,0,0,,KGL,16.501078368604325,true,1.3211111111111111 
10,1,6,Admin-1 capital,Targu Jiu,,,0,Targu Jiu,0,0,,0,0,Romania,ROU,Romania,ROU,Gorj,RO,,45.045,23.274001,4,1,Added missing admin-1 capital. Population from GeoNames.,97179,97179,0,8,8,665010,,,0,0,0,0,0,0,0,0,0,0,0,0,0,0,0,0,0,0,0,0,0,0,0,0,0,0,0,Targu Jiu,P,PPLA,19,97179,0,194,Europe/Bucharest,GeoNames match general.,0,,0,0,0,0,0,0,0,0,0,0,0,0,0,0,0,0,0,0,0,,CRA,7.134074467889878,true,1.8569444444444445 
10,1,6,Admin-1 capital,Slatina,,,0,Slatina,0,0,,0,0,Romania,ROU,Romania,ROU,Olt,RO,,44.434998,24.371002,4,1,Added missing admin-1 capital. Population from GeoNames.,78988,78988,0,8,8,666767,,,0,0,0,0,0,0,0,0,0,0,0,0,0,0,0,0,0,0,0,0,0,0,0,0,0,0,0,Slatina,P,PPLA,29,78988,0,165,Europe/Bucharest,GeoNames match general.,0,,0,0,0,0,0,0,0,0,0,0,0,0,0,0,0,0,0,0,0,,CRA,6.154074467889878,true,0.8769444444444444 
10,1,6,Admin-1 capital,Alexandria,,,0,Alexandria,0,0,,0,0,Romania,ROU,Romania,ROU,Teleorman,RO,,43.901631,25.286707,4,1,Added missing admin-1 capital. Population from GeoNames.,49346,49346,0,7,7,686502,,,0,0,0,0,0,0,0,0,0,0,0,0,0,0,0,0,0,0,0,0,0,0,0,0,0,0,0,Alexandria,P,PPLA,35,49346,0,34,Europe/Bucharest,GeoNames match general.,0,,0,0,0,0,0,0,0,0,0,0,0,0,0,0,0,0,0,0,0,,OTP,7.524764971871169,true,2.0236111111111112 
10,1,6,Admin-1 capital,Targoviste,,,0,Targoviste,0,0,,0,0,Romania,ROU,Romania,ROU,DOmbovita,RO,,44.937999,25.459003,4,1,Added missing admin-1 capital. Population from GeoNames.,88435,88435,0,8,8,665024,,,0,0,0,0,0,0,0,0,0,0,0,0,0,0,0,0,0,0,0,0,0,0,0,0,0,0,0,Targoviste,P,PPLA,16,88435,0,286,Europe/Bucharest,GeoNames match general.,0,,0,0,0,0,0,0,0,0,0,0,0,0,0,0,0,0,0,0,0,,OTP,7.043098305204502,true,1.5419444444444443 
10,1,6,Admin-1 capital,Giurgiu,,,0,Giurgiu,0,0,,0,0,Romania,ROU,Romania,ROU,Giurgiu,RO,,43.929999,25.84,4,1,Added missing admin-1 capital. Population from GeoNames.,69067,69067,0,8,8,677106,,,0,0,0,0,0,0,0,0,0,0,0,0,0,0,0,0,0,0,0,0,0,0,0,0,0,0,0,Giurgiu,P,PPLA,42,69067,0,11,Europe/Bucharest,GeoNames match general.,0,,0,0,0,0,0,0,0,0,0,0,0,0,0,0,0,0,0,0,0,,OTP,7.25337608298228,true,1.7522222222222223 
10,1,6,Admin-1 capital,Slobozia,,,0,Slobozia,0,0,,0,0,Romania,ROU,Romania,ROU,Ialomita,RO,,44.569998,27.381997,4,1,Added missing admin-1 capital. Population from GeoNames.,52693,52693,0,8,8,666715,,,0,0,0,0,0,0,0,0,0,0,0,0,0,0,0,0,0,0,0,0,0,0,0,0,0,0,0,Slobozia,P,PPLA,22,52693,0,27,Europe/Bucharest,GeoNames match general.,0,,0,0,0,0,0,0,0,0,0,0,0,0,0,0,0,0,0,0,0,,CND,10.367119126173197,true,1.5555555555555556 
10,1,6,Admin-1 capital,Dar'a,,,0,Dar'a,0,0,,0,0,Syria,SYR,Syria,SYR,Dar`a,SY,,32.625,36.105004,4,1,Added missing admin-1 capital.,146481,97969,0,9,8,-1,,,0,0,0,0,0,0,0,0,0,0,0,0,0,0,0,0,0,0,0,0,0,0,0,0,0,0,0,,,,0,0,0,0,,"No GeoNames match due to small population, not in GeoNames, or poor NEV placement.",0,,0,0,0,0,0,0,0,0,0,0,0,0,0,0,0,0,0,0,0,,AMM,8.133935819301934,false, 
10,1,7,Admin-1 capital,Delemont,,,0,Delemont,0,0,,0,0,Switzerland,CHE,Switzerland,CHE,Jura,CH,,47.369997,7.344999,4,1,Added missing admin-1 capital. Population from GeoNames.,11315,11315,0,6,6,2661035,,,0,0,0,0,0,0,0,0,0,0,0,0,0,0,0,0,0,0,0,0,0,0,0,0,0,0,0,Delemont,P,PPLA,0,11315,0,412,Europe/Zurich,GeoNames match general.,0,,0,0,0,0,0,0,0,0,0,0,0,0,0,0,0,0,0,0,0,,MLH,6.042566468014768,true,0.7566666666666666 
10,1,7,Admin-1 capital,Neuchatel,,,0,Neuchatel,0,0,,0,0,Switzerland,CHE,Switzerland,CHE,Neuchetel,CH,,46.998999,6.922999,4,1,Added missing admin-1 capital. Population from GeoNames.,31270,31270,0,7,7,2659496,,,0,0,0,0,0,0,0,0,0,0,0,0,0,0,0,0,0,0,0,0,0,0,0,0,0,0,0,Neuchatel,P,PPLA,0,31270,0,463,Europe/Zurich,GeoNames match general.,0,,0,0,0,0,0,0,0,0,0,0,0,0,0,0,0,0,0,0,0,,BRN,4.066909254146536,true,0.7872222222222223 
10,1,7,Admin-1 capital,Aarau,,,0,Aarau,0,0,,0,0,Switzerland,CHE,Switzerland,CHE,Aargau,CH,,47.390004,8.034004,4,1,Added missing admin-1 capital. Population from GeoNames.,15501,15501,0,6,6,2661881,,,0,0,0,0,0,0,0,0,0,0,0,0,0,0,0,0,0,0,0,0,0,0,0,0,0,0,0,Aarau,P,PPLA,0,15501,0,379,Europe/Zurich,GeoNames match general.,0,,0,0,0,0,0,0,0,0,0,0,0,0,0,0,0,0,0,0,0,,ZRH,3.3111168491691436,false, 
10,1,7,Admin-1 capital,Stans,,,0,Stans,0,0,,0,0,Switzerland,CHE,Switzerland,CHE,Nidwalden,CH,,46.950003,8.383303,4,1,Added missing admin-1 capital. Population from GeoNames.,7475,7475,0,5,5,2658504,,,0,0,0,0,0,0,0,0,0,0,0,0,0,0,0,0,0,0,0,0,0,0,0,0,0,0,0,Stans,P,PPLA,0,7475,0,558,Europe/Zurich,GeoNames match general.,0,,0,0,0,0,0,0,0,0,0,0,0,0,0,0,0,0,0,0,0,,ZRH,3.3111168491691436,false, 
10,1,7,Admin-1 capital,Sion,,,0,Sion,0,0,,0,0,Switzerland,CHE,Switzerland,CHE,Valais,CH,,46.239003,7.353999,4,1,Added missing admin-1 capital. Population from GeoNames.,28045,28045,0,7,7,2658576,,,0,0,0,0,0,0,0,0,0,0,0,0,0,0,0,0,0,0,0,0,0,0,0,0,0,0,0,Sion,P,PPLA,0,28045,0,496,Europe/Zurich,GeoNames match general.,0,,0,0,0,0,0,0,0,0,0,0,0,0,0,0,0,0,0,0,0,,BRN,4.95885369859098,true,1.6791666666666667 
10,1,7,Admin-1 capital,Herisau,,,0,Herisau,0,0,,0,0,Switzerland,CHE,Switzerland,CHE,Appenzell Ausserrhoden,CH,,47.383299,9.283302,4,1,Added missing admin-1 capital. Population from GeoNames.,15438,15438,0,6,6,2660365,,,0,0,0,0,0,0,0,0,0,0,0,0,0,0,0,0,0,0,0,0,0,0,0,0,0,0,0,Herisau,P,PPLA,0,15438,0,804,Europe/Zurich,GeoNames match general.,0,,0,0,0,0,0,0,0,0,0,0,0,0,0,0,0,0,0,0,0,,ACH,7.353998044538785,true,0.3561111111111111 
10,1,7,Admin-1 capital,Saint Gallen,,,0,Saint Gallen,0,0,,0,0,Switzerland,CHE,Switzerland,CHE,Sankt Gallen,CH,,47.422998,9.361999,4,1,Added missing admin-1 capital. Population from GeoNames.,70572,70572,0,8,8,2658822,,,0,0,0,0,0,0,0,0,0,0,0,0,0,0,0,0,0,0,0,0,0,0,0,0,0,0,0,Sankt Gallen,P,PPLA,0,70572,0,671,Europe/Zurich,GeoNames match general.,0,,0,0,0,0,0,0,0,0,0,0,0,0,0,0,0,0,0,0,0,,ACH,7.2439980445387855,true,0.2461111111111111 
10,1,7,Admin-1 capital,Bellinzona,,,0,Bellinzona,0,0,,0,0,Switzerland,CHE,Switzerland,CHE,Ticino,CH,,46.197,9.019999,4,1,Added missing admin-1 capital. Population from GeoNames.,16572,16572,0,6,6,2661567,,,0,0,0,0,0,0,0,0,0,0,0,0,0,0,0,0,0,0,0,0,0,0,0,0,0,0,0,Bellinzona,P,PPLA,0,16572,0,228,Europe/Zurich,GeoNames match general.,0,,0,0,0,0,0,0,0,0,0,0,0,0,0,0,0,0,0,0,0,,LUG,6.0142495942046885,true,0.4286111111111111 
10,1,7,Admin-1 capital,Glarus,,,0,Glarus,0,0,,0,0,Switzerland,CHE,Switzerland,CHE,Glarus,CH,,47.050002,9.0667,4,1,Added missing admin-1 capital. Population from GeoNames.,5681,5681,0,5,5,2660594,,,0,0,0,0,0,0,0,0,0,0,0,0,0,0,0,0,0,0,0,0,0,0,0,0,0,0,0,Glarus,P,PPLA,0,5681,0,470,Europe/Zurich,GeoNames match general.,0,,0,0,0,0,0,0,0,0,0,0,0,0,0,0,0,0,0,0,0,,ZRH,3.3111168491691436,false, 
10,1,7,Admin-1 capital,Schaffhausen,,,0,Schaffhausen,0,0,,0,0,Switzerland,CHE,Switzerland,CHE,Schaffhausen,CH,,47.706003,8.632999,4,1,Added missing admin-1 capital. Population from GeoNames.,33863,33863,0,7,7,2658761,,,0,0,0,0,0,0,0,0,0,0,0,0,0,0,0,0,0,0,0,0,0,0,0,0,0,0,0,Schaffhausen,P,PPLA,0,33863,0,399,Europe/Zurich,GeoNames match general.,0,,0,0,0,0,0,0,0,0,0,0,0,0,0,0,0,0,0,0,0,,ZRH,3.3111168491691436,false, 
10,1,7,Admin-1 capital,Schwyz,,,0,Schwyz,0,0,,0,0,Switzerland,CHE,Switzerland,CHE,Schwyz,CH,,47.019996,8.648002,4,1,Added missing admin-1 capital. Population from GeoNames.,14177,14177,0,6,6,2658665,,,0,0,0,0,0,0,0,0,0,0,0,0,0,0,0,0,0,0,0,0,0,0,0,0,0,0,0,Schwyz,P,PPLA,0,14177,0,564,Europe/Zurich,GeoNames match general.,0,,0,0,0,0,0,0,0,0,0,0,0,0,0,0,0,0,0,0,0,,ZRH,3.3111168491691436,false, 
10,1,7,Admin-1 capital,Frauenfeld,,,0,Frauenfeld,0,0,,0,0,Switzerland,CHE,Switzerland,CHE,Thurgau,CH,,47.567997,9.108001,4,1,Added missing admin-1 capital. Population from GeoNames.,21979,21979,0,7,7,2660727,,,0,0,0,0,0,0,0,0,0,0,0,0,0,0,0,0,0,0,0,0,0,0,0,0,0,0,0,Frauenfeld,P,PPLA,0,21979,0,478,Europe/Zurich,GeoNames match general.,0,,0,0,0,0,0,0,0,0,0,0,0,0,0,0,0,0,0,0,0,,FDH,6.591174652966534,true,1.0575 
10,1,7,Admin-1 capital,Altdorf,,,0,Altdorf,0,0,,0,0,Switzerland,CHE,Switzerland,CHE,Uri,CH,,46.879002,8.638003,4,1,Added missing admin-1 capital. Population from GeoNames.,8678,8678,0,5,5,2661780,,,0,0,0,0,0,0,0,0,0,0,0,0,0,0,0,0,0,0,0,0,0,0,0,0,0,0,0,Altdorf,P,PPLA,0,8678,0,655,Europe/Zurich,GeoNames match general.,0,,0,0,0,0,0,0,0,0,0,0,0,0,0,0,0,0,0,0,0,,ZRH,3.3111168491691436,false, 
10,1,7,Admin-1 capital,Zug,,,0,Zug,0,0,,0,0,Switzerland,CHE,Switzerland,CHE,Zug,CH,,47.178999,8.487001,4,1,Added missing admin-1 capital. Population from GeoNames.,23435,23435,0,7,7,2657908,,,0,0,0,0,0,0,0,0,0,0,0,0,0,0,0,0,0,0,0,0,0,0,0,0,0,0,0,Zug,P,PPLA,0,23435,0,503,Europe/Zurich,GeoNames match general.,0,,0,0,0,0,0,0,0,0,0,0,0,0,0,0,0,0,0,0,0,,ZRH,3.3111168491691436,false, 
10,1,7,Admin-1 capital,Falun,,,0,Falun,0,0,,0,0,Sweden,SWE,Sweden,SWE,Dalarna,SE,,60.613002,15.647005,4,1,Added missing admin-1 capital. Population from GeoNames.,36477,36477,0,7,7,2715459,,,0,0,0,0,0,0,0,0,0,0,0,0,0,0,0,0,0,0,0,0,0,0,0,0,0,0,0,Falun,P,PPLA,10,36477,0,97,Europe/Stockholm,GeoNames match general.,0,,0,0,0,0,0,0,0,0,0,0,0,0,0,0,0,0,0,0,0,,BLE,6.8031311991611245,true,0.4388888888888889 
10,1,7,Admin-1 capital,Nykoping,,,0,Nykoping,0,0,,0,0,Sweden,SWE,Sweden,SWE,SWdermanland,SE,,58.763997,17.015005,4,1,Added missing admin-1 capital. Population from GeoNames.,27582,27582,0,7,7,2687700,,,0,0,0,0,0,0,0,0,0,0,0,0,0,0,0,0,0,0,0,0,0,0,0,0,0,0,0,Nykoping,P,PPLA,18,27582,0,17,Europe/Stockholm,GeoNames match general.,0,,0,0,0,0,0,0,0,0,0,0,0,0,0,0,0,0,0,0,0,,NYO,4.261312732503859,false, 
10,1,7,Admin-1 capital,Harnosand,,,0,Harnosand,0,0,,0,0,Sweden,SWE,Sweden,SWE,VWsternorrland,SE,,62.633997,17.934004,4,1,Added missing admin-1 capital. Population from GeoNames.,17016,17016,0,6,6,2707684,,,0,0,0,0,0,0,0,0,0,0,0,0,0,0,0,0,0,0,0,0,0,0,0,0,0,0,0,Harnosand,P,PPLA,24,17016,0,25,Europe/Stockholm,GeoNames match general.,0,,0,0,0,0,0,0,0,0,0,0,0,0,0,0,0,0,0,0,0,,SDL,7.23607078307962,true,0.4494444444444444 
10,1,7,Admin-1 capital,Karlskrona,,,0,Karlskrona,0,0,,0,0,Sweden,SWE,Sweden,SWE,Blekinge,SE,,56.203002,15.296005,4,1,Added missing admin-1 capital.,35212,35212,0,7,7,-1,,,0,0,0,0,0,0,0,0,0,0,0,0,0,0,0,0,0,0,0,0,0,0,0,0,0,0,0,,,,0,0,0,0,,,0,,0,0,0,0,0,0,0,0,0,0,0,0,0,0,0,0,0,0,0,,RNB,9.212154369957842,true,0.1836111111111111 
10,1,6,Admin-1 capital,Alba Lulia,,,0,Alba Lulia,0,0,,0,0,Romania,ROU,Romania,ROU,Alba,RO,,46.077003,23.580001,4,1,Added missing admin-1 capital. Population from GeoNames.,66085,66085,0,8,8,686578,,,0,0,0,0,0,0,0,0,0,0,0,0,0,0,0,0,0,0,0,0,0,0,0,0,0,0,0,Alba Iulia,P,PPLA,1,66085,0,203,Europe/Bucharest,GeoNames match general.,0,,0,0,0,0,0,0,0,0,0,0,0,0,0,0,0,0,0,0,0,,SBZ,7.161961974278435,false, 
10,1,6,Admin-1 capital,Bistrita,,,0,Bistrita,0,0,,0,0,Romania,ROU,Romania,ROU,Bistrita-Nasaud,RO,,47.138004,24.513004,4,1,Added missing admin-1 capital. Population from GeoNames.,81318,81318,0,8,8,684657,,,0,0,0,0,0,0,0,0,0,0,0,0,0,0,0,0,0,0,0,0,0,0,0,0,0,0,0,Bistrita,P,PPLA,6,81318,0,329,Europe/Bucharest,GeoNames match general.,0,,0,0,0,0,0,0,0,0,0,0,0,0,0,0,0,0,0,0,0,,CLJ,6.683024747573724,true,1.6522222222222223 
10,1,6,Admin-1 capital,Deva,,,0,Deva,0,0,,0,0,Romania,ROU,Romania,ROU,Hunedoara,RO,,45.883323,22.916674,4,1,Added missing admin-1 capital. Population from GeoNames.,67802,67802,0,8,8,679452,,,0,0,0,0,0,0,0,0,0,0,0,0,0,0,0,0,0,0,0,0,0,0,0,0,0,0,0,Deva,P,PPL,0,67802,0,202,Europe/Bucharest,Geonames ascii name + lat.d + long.d matching.,0,,0,0,0,0,0,0,0,0,0,0,0,0,0,0,0,0,0,0,0,,SBZ,7.161961974278435,false, 
10,1,6,Admin-1 capital,Zalau,,,0,Zalau,0,0,,0,0,Romania,ROU,Romania,ROU,Salaj,RO,,47.175003,23.063004,4,1,Added missing admin-1 capital. Population from GeoNames.,63232,63232,0,8,8,662334,,,0,0,0,0,0,0,0,0,0,0,0,0,0,0,0,0,0,0,0,0,0,0,0,0,0,0,0,Zalau,P,PPLA,31,63232,0,263,Europe/Bucharest,GeoNames match general.,0,,0,0,0,0,0,0,0,0,0,0,0,0,0,0,0,0,0,0,0,,SUJ,9.474668610178302,true,1.261388888888889 
10,1,6,Admin-1 capital,Satu Mare,,,0,Satu Mare,0,0,,0,0,Romania,ROU,Romania,ROU,Satu Mare,RO,,47.791998,22.885002,4,1,Added missing admin-1 capital. Population from GeoNames.,112490,112490,0,9,9,667873,,,0,0,0,0,0,0,0,0,0,0,0,0,0,0,0,0,0,0,0,0,0,0,0,0,0,0,0,Satu Mare,P,PPLA,32,112490,0,98,Europe/Bucharest,GeoNames match general.,0,,0,0,0,0,0,0,0,0,0,0,0,0,0,0,0,0,0,0,0,,SUJ,8.440779721289413,true,0.2275 
10,1,6,Admin-1 capital,Rimnicu Vilcea,,,0,Rimnicu Vilcea,0,0,,0,0,Romania,ROU,Romania,ROU,VOlcea,RO,,45.109998,24.382999,4,1,Added missing admin-1 capital. Population from GeoNames.,107558,107558,0,9,9,668872,,,0,0,0,0,0,0,0,0,0,0,0,0,0,0,0,0,0,0,0,0,0,0,0,0,0,0,0,Ramnicu Valcea,P,PPLA,39,107558,0,179,Europe/Bucharest,GeoNames match general.,0,,0,0,0,0,0,0,0,0,0,0,0,0,0,0,0,0,0,0,0,,SBZ,7.161961974278435,false, 
10,1,6,Admin-1 capital,Sfintu-Gheorghe,,,0,Sfintu-Gheorghe,0,0,,0,0,Romania,ROU,Romania,ROU,Covasna,RO,,45.867996,25.793001,4,1,Added missing admin-1 capital. Population from GeoNames.,60677,60677,0,8,8,667303,,,0,0,0,0,0,0,0,0,0,0,0,0,0,0,0,0,0,0,0,0,0,0,0,0,0,0,0,Sfantu-Gheorghe,P,PPLA,15,60677,0,537,Europe/Bucharest,GeoNames match general.,0,,0,0,0,0,0,0,0,0,0,0,0,0,0,0,0,0,0,0,0,,TGM,7.83664225871931,true,2.6969444444444446 
10,1,6,Admin-1 capital,Miercurea Cuic,,,0,Miercurea-Cuic,0,0,,0,0,Romania,ROU,Romania,ROU,Harghita,RO,,46.360998,25.524001,4,1,Added missing admin-1 capital.,42029,37980,0,7,7,-1,,,0,0,0,0,0,0,0,0,0,0,0,0,0,0,0,0,0,0,0,0,0,0,0,0,0,0,0,,,,0,0,0,0,,,0,,0,0,0,0,0,0,0,0,0,0,0,0,0,0,0,0,0,0,0,,TGM,7.200253369830422,true,2.0605555555555557 
10,1,6,Admin-1 capital,Piatra-Neamt,,,0,Piatra-Neamt,0,0,,0,0,Romania,ROU,Romania,ROU,Neamt,RO,,46.940004,26.382997,4,1,Added missing admin-1 capital. Population from GeoNames.,102688,102688,0,9,9,670889,,,0,0,0,0,0,0,0,0,0,0,0,0,0,0,0,0,0,0,0,0,0,0,0,0,0,0,0,Piatra Neamt,P,PPLA,28,102688,0,522,Europe/Bucharest,GeoNames match general.,0,,0,0,0,0,0,0,0,0,0,0,0,0,0,0,0,0,0,0,0,,IAS,7.49415383892992,true,2.0419444444444443 
10,1,6,Admin-1 capital,Braila,,,0,Braila,0,0,,0,0,Romania,ROU,Romania,ROU,Braila,RO,,45.291996,27.969004,4,1,Added missing admin-1 capital. Population from GeoNames.,213569,213569,0,10,10,683902,,,0,0,0,0,0,0,0,0,0,0,0,0,0,0,0,0,0,0,0,0,0,0,0,0,0,0,0,Braila,P,PPLA,8,213569,0,4,Europe/Bucharest,GeoNames match general.,0,,0,0,0,0,0,0,0,0,0,0,0,0,0,0,0,0,0,0,0,,CND,11.02795245950653,true,2.2163888888888885 
10,1,6,Admin-1 capital,Vaslui,,,0,Vaslui,0,0,,0,0,Romania,ROU,Romania,ROU,Vaslui,RO,,46.633329,27.733339,4,1,Added missing admin-1 capital. Population from GeoNames.,69225,69225,0,8,8,663118,,,0,0,0,0,0,0,0,0,0,0,0,0,0,0,0,0,0,0,0,0,0,0,0,0,0,0,0,Vaslui,P,PPLA,38,69225,0,78,Europe/Bucharest,GeoNames match general.,0,,0,0,0,0,0,0,0,0,0,0,0,0,0,0,0,0,0,0,0,,IAS,6.637764950041031,true,1.1855555555555557 
10,1,6,Admin-1 capital,Salyan,,,0,Sallyan,0,0,,0,0,Nepal,NPL,Nepal,NPL,Rapti,NP,,28.35,82.183303,4,1,Added missing admin-1 capital.,15000,15000,0,6,6,-1,,,0,0,0,0,0,0,0,0,0,0,0,0,0,0,0,0,0,0,0,0,0,0,0,0,0,0,0,,,,0,0,0,0,,"No GeoNames match due to small population, not in GeoNames, or poor NEV placement.",0,,0,0,0,0,0,0,0,0,0,0,0,0,0,0,0,0,0,0,0,,KEP,21.49888565596455,true,2.3230555555555554 
10,1,5,Admin-1 capital,Mae Hong Son,,,0,Mae Hong Son,0,0,,0,0,Thailand,THA,Thailand,THA,Mae Hong Son,TH,,19.301004,97.968997,4,1,Added missing admin-1 capital. Population from GeoNames.,9109,9109,0,5,5,1152222,,,0,0,0,0,0,0,0,0,0,0,0,0,0,0,0,0,0,0,0,0,0,0,0,0,0,0,0,Mae Hong Son,P,PPLA,1,9109,0,250,Asia/Bangkok,GeoNames match general.,0,,0,0,0,0,0,0,0,0,0,0,0,0,0,0,0,0,0,0,0,,HGN,23.800714989970885,true,0.022500000000000003 
10,1,5,Admin-1 capital,Phangnga,,,0,Phangnga,0,0,,0,0,Thailand,THA,Thailand,THA,Phangnga,TH,,8.451,98.533999,4,1,Added missing admin-1 capital. Population from GeoNames.,9676,9676,0,5,5,1151464,,,0,0,0,0,0,0,0,0,0,0,0,0,0,0,0,0,0,0,0,0,0,0,0,0,0,0,0,Phangnga,P,PPLA,61,9676,0,61,Asia/Bangkok,GeoNames match general.,0,,0,0,0,0,0,0,0,0,0,0,0,0,0,0,0,0,0,0,0,,HKT,21.40626187824472,true,0.795 
10,1,5,Admin-1 capital,Ranong,,,0,Ranong,0,0,,0,0,Thailand,THA,Thailand,THA,Ranong,TH,,9.962001,98.638003,4,1,Added missing admin-1 capital. Population from GeoNames.,24561,24561,0,7,7,1150965,,,0,0,0,0,0,0,0,0,0,0,0,0,0,0,0,0,0,0,0,0,0,0,0,0,0,0,0,Ranong,P,PPLA,59,24561,0,-9999,Asia/Bangkok,GeoNames match general.,0,,0,0,0,0,0,0,0,0,0,0,0,0,0,0,0,0,0,0,0,,KAW,37.82067991900701,true,11.45 
10,1,5,Admin-1 capital,Krabi,,,0,Krabi,0,0,,0,0,Thailand,THA,Thailand,THA,Krabi,TH,,8.052003,98.911999,4,1,Added missing admin-1 capital. Population from GeoNames.,31219,31219,0,7,7,1152633,,,0,0,0,0,0,0,0,0,0,0,0,0,0,0,0,0,0,0,0,0,0,0,0,0,0,0,0,Krabi,P,PPLA,63,31219,0,2,Asia/Bangkok,GeoNames match general.,0,,0,0,0,0,0,0,0,0,0,0,0,0,0,0,0,0,0,0,0,,KBV,21.357183527991285,true,0.3225 
10,1,5,Admin-1 capital,Phatthalung,,,0,Phatthalung,0,0,,0,0,Thailand,THA,Thailand,THA,Phatthalung,TH,,7.614999,100.081,4,1,Added missing admin-1 capital. Population from GeoNames.,43522,43522,0,7,7,1607779,,,0,0,0,0,0,0,0,0,0,0,0,0,0,0,0,0,0,0,0,0,0,0,0,0,0,0,0,Phatthalung,P,PPLA,66,43522,0,77,Asia/Bangkok,GeoNames match general.,0,,0,0,0,0,0,0,0,0,0,0,0,0,0,0,0,0,0,0,0,,TST,26.00700168757092,true,0.8613888888888889 
10,1,5,Admin-1 capital,Cankiri,,,0,Cankiri,0,0,,0,0,Turkey,TUR,Turkey,TUR,Tankiri,TR,,40.607001,33.621004,4,1,Added missing admin-1 capital. Population from GeoNames.,71379,71379,0,8,8,749748,,,0,0,0,0,0,0,0,0,0,0,0,0,0,0,0,0,0,0,0,0,0,0,0,0,0,0,0,Cankiri,P,PPL,0,71379,0,723,Europe/Istanbul,Geonames ascii name + lat.d + long.d matching.,0,,0,0,0,0,0,0,0,0,0,0,0,0,0,0,0,0,0,0,0,,ESB,10.427931989317724,true,1.6825 
10,1,5,Admin-1 capital,Satun,,,0,Satun,0,0,,0,0,Thailand,THA,Thailand,THA,Satun,TH,,6.616701,100.066699,4,1,Added missing admin-1 capital. Population from GeoNames.,34544,34544,0,7,7,1606376,,,0,0,0,0,0,0,0,0,0,0,0,0,0,0,0,0,0,0,0,0,0,0,0,0,0,0,0,Satun,P,PPLA,67,34544,0,18,Asia/Bangkok,GeoNames match general.,0,,0,0,0,0,0,0,0,0,0,0,0,0,0,0,0,0,0,0,0,,LGK,29.55597834618258,true,4.0938888888888885 
10,1,5,Admin-1 capital,Lamphun,,,0,Lamphun,0,0,,0,0,Thailand,THA,Thailand,THA,Lamphun,TH,,18.503001,99.073999,4,1,Added missing admin-1 capital. Population from GeoNames.,14030,14030,0,6,6,1152468,,,0,0,0,0,0,0,0,0,0,0,0,0,0,0,0,0,0,0,0,0,0,0,0,0,0,0,0,Lamphun,P,PPLA,5,0,0,284,Asia/Bangkok,GeoNames match general.,0,,0,0,0,0,0,0,0,0,0,0,0,0,0,0,0,0,0,0,0,,CNX,22.306033205726848,true,0.7272222222222222 
10,1,5,Admin-1 capital,Kamphaeng Phet,,,0,Kamphaeng Phet,0,0,,0,0,Thailand,THA,Thailand,THA,Kamphaeng Phet,TH,,16.472997,99.529003,4,1,Added missing admin-1 capital. Population from GeoNames.,58787,58787,0,8,8,1153090,,,0,0,0,0,0,0,0,0,0,0,0,0,0,0,0,0,0,0,0,0,0,0,0,0,0,0,0,Kamphaeng Phet,P,PPLA,11,58787,0,72,Asia/Bangkok,GeoNames match general.,0,,0,0,0,0,0,0,0,0,0,0,0,0,0,0,0,0,0,0,0,,PHS,26.001223750379,true,1.9875 
10,1,5,Admin-1 capital,Phichit,,,0,Phichit,0,0,,0,0,Thailand,THA,Thailand,THA,Phichit,TH,,16.439004,100.349002,4,1,Added missing admin-1 capital. Population from GeoNames.,35760,35760,0,7,7,1607725,,,0,0,0,0,0,0,0,0,0,0,0,0,0,0,0,0,0,0,0,0,0,0,0,0,0,0,0,Phichit,P,PPLA,13,35760,0,42,Asia/Bangkok,GeoNames match general.,0,,0,0,0,0,0,0,0,0,0,0,0,0,0,0,0,0,0,0,0,,PHS,25.287890417045666,true,1.2741666666666667 
10,1,5,Admin-1 capital,Phetchabun,,,0,Phetchabun,0,0,,0,0,Thailand,THA,Thailand,THA,Phetchabun,TH,,16.418997,101.159002,4,1,Added missing admin-1 capital. Population from GeoNames.,50656,50656,0,8,8,1607737,,,0,0,0,0,0,0,0,0,0,0,0,0,0,0,0,0,0,0,0,0,0,0,0,0,0,0,0,Phetchabun,P,PPLA,14,50656,0,122,Asia/Bangkok,GeoNames match general.,0,,0,0,0,0,0,0,0,0,0,0,0,0,0,0,0,0,0,0,0,,PHS,26.257057083712333,true,2.243333333333333 
10,1,5,Admin-1 capital,Supham Buri,,,0,Supham Buri,0,0,,0,0,Thailand,THA,Thailand,THA,Suphan Buri,TH,,14.471001,100.128997,4,1,Added missing admin-1 capital. Population from GeoNames.,53399,53399,0,8,8,1606033,,,0,0,0,0,0,0,0,0,0,0,0,0,0,0,0,0,0,0,0,0,0,0,0,0,0,0,0,Suphan Buri,P,PPLA,51,53399,0,10,Asia/Bangkok,GeoNames match general.,0,,0,0,0,0,0,0,0,0,0,0,0,0,0,0,0,0,0,0,0,,DMK,23.370774646415754,true,1.4255555555555555 
10,1,5,Admin-1 capital,Ang Thong,,,0,Ang Thong,0,0,,0,0,Thailand,THA,Thailand,THA,Ang Thong,TH,,14.583303,100.45,4,1,Added missing admin-1 capital. Population from GeoNames.,13738,13738,0,6,6,1621035,,,0,0,0,0,0,0,0,0,0,0,0,0,0,0,0,0,0,0,0,0,0,0,0,0,0,0,0,Ang Thong,P,PPLA,35,0,0,14,Asia/Bangkok,GeoNames match general.,0,,0,0,0,0,0,0,0,0,0,0,0,0,0,0,0,0,0,0,0,,DMK,23.129663535304644,true,1.1844444444444444 
10,1,5,Admin-1 capital,Chainat,,,0,Chainat,0,0,,0,0,Thailand,THA,Thailand,THA,Chai Nat,TH,,15.179004,100.126,4,1,Added missing admin-1 capital. Population from GeoNames.,15469,15469,0,6,6,1611416,,,0,0,0,0,0,0,0,0,0,0,0,0,0,0,0,0,0,0,0,0,0,0,0,0,0,0,0,Chai Nat,P,PPLA,32,15469,0,20,Asia/Bangkok,GeoNames match general.,0,,0,0,0,0,0,0,0,0,0,0,0,0,0,0,0,0,0,0,0,,DMK,24.244663535304642,true,2.2994444444444446 
10,1,5,Admin-1 capital,Nakhon Nayok,,,0,Nakhon Nayok,0,0,,0,0,Thailand,THA,Thailand,THA,Nakhon Nayok,TH,,14.200002,101.215999,4,1,Added missing admin-1 capital. Population from GeoNames.,21309,21309,0,7,7,1608539,,,0,0,0,0,0,0,0,0,0,0,0,0,0,0,0,0,0,0,0,0,0,0,0,0,0,0,0,Nakhon Nayok,P,PPLA,43,21309,0,26,Asia/Bangkok,GeoNames match general.,0,,0,0,0,0,0,0,0,0,0,0,0,0,0,0,0,0,0,0,0,,DMK,23.31994131308242,true,1.3747222222222222 
10,1,5,Admin-1 capital,Sing Buri,,,0,Sing Buri,0,0,,0,0,Thailand,THA,Thailand,THA,Sing Buri,TH,,14.886999,100.401004,4,1,Added missing admin-1 capital. Population from GeoNames.,20046,20046,0,7,7,1606270,,,0,0,0,0,0,0,0,0,0,0,0,0,0,0,0,0,0,0,0,0,0,0,0,0,0,0,0,Sing Buri,P,PPLA,33,20046,0,4,Asia/Bangkok,GeoNames match general.,0,,0,0,0,0,0,0,0,0,0,0,0,0,0,0,0,0,0,0,0,,DMK,23.600496868637975,true,1.6552777777777776 
10,1,5,Admin-1 capital,Nakhon Pathom,,,0,Nakhon Pathom,0,0,,0,0,Thailand,THA,Thailand,THA,Nakhon Pathom,TH,,13.817997,100.063999,4,1,Added missing admin-1 capital. Population from GeoNames.,117927,117927,0,9,9,1608534,,,0,0,0,0,0,0,0,0,0,0,0,0,0,0,0,0,0,0,0,0,0,0,0,0,0,0,0,Nakhon Pathom,P,PPLA,53,117927,0,4,Asia/Bangkok,GeoNames match general.,0,,0,0,0,0,0,0,0,0,0,0,0,0,0,0,0,0,0,0,0,,DMK,23.00855242419353,true,1.0633333333333332 
10,1,5,Admin-1 capital,Prachuap Khiri Khan,,,0,Prachuap Khiri Khan,0,0,,0,0,Thailand,THA,Thailand,THA,Prachuap Khiri Khan,TH,,11.802996,99.800002,4,1,Added missing admin-1 capital. Population from GeoNames.,33521,33521,0,7,7,1151074,,,0,0,0,0,0,0,0,0,0,0,0,0,0,0,0,0,0,0,0,0,0,0,0,0,0,0,0,Prachuap Khiri Khan,P,PPLA,57,33521,0,13,Asia/Bangkok,GeoNames match general.,0,,0,0,0,0,0,0,0,0,0,0,0,0,0,0,0,0,0,0,0,,CJM,26.879054143458333,true,2.2991666666666664 
10,1,5,Admin-1 capital,Samut Sakhon,,,0,Samut Sakhon,0,0,,0,0,Thailand,THA,Thailand,THA,Samut Sakhon,TH,,13.536,100.274005,4,1,Added missing admin-1 capital. Population from GeoNames.,63498,63498,0,8,8,1606588,,,0,0,0,0,0,0,0,0,0,0,0,0,0,0,0,0,0,0,0,0,0,0,0,0,0,0,0,Samut Sakhon,P,PPLA,55,63498,0,2,Asia/Bangkok,GeoNames match general.,0,,0,0,0,0,0,0,0,0,0,0,0,0,0,0,0,0,0,0,0,,BKK,19.291036568856125,true,1.3397222222222223 
10,1,5,Admin-1 capital,Yasothon,,,0,Yasothon,0,0,,0,0,Thailand,THA,Thailand,THA,Yasothon,TH,,15.787998,104.150998,4,1,Added missing admin-1 capital. Population from GeoNames.,21643,21643,0,7,7,1604769,,,0,0,0,0,0,0,0,0,0,0,0,0,0,0,0,0,0,0,0,0,0,0,0,0,0,0,0,Yasothon,P,PPLA,72,21643,0,128,Asia/Bangkok,GeoNames match general.,0,,0,0,0,0,0,0,0,0,0,0,0,0,0,0,0,0,0,0,0,,ROI,25.823361533528796,true,1.1794444444444445 
10,1,5,Admin-1 capital,Samut Songkhram,,,0,Samut Songkhram,0,0,,0,0,Thailand,THA,Thailand,THA,Samut Songkhram,TH,,13.412997,100.000999,4,1,Added missing admin-1 capital. Population from GeoNames.,35065,35065,0,7,7,1606586,,,0,0,0,0,0,0,0,0,0,0,0,0,0,0,0,0,0,0,0,0,0,0,0,0,0,0,0,Samut Songkhram,P,PPLA,54,35065,0,5,Asia/Bangkok,GeoNames match general.,0,,0,0,0,0,0,0,0,0,0,0,0,0,0,0,0,0,0,0,0,,DMK,23.30494131308242,true,1.359722222222222 
10,1,5,Admin-1 capital,Chachoengsao,,,0,Chachoengsao,0,0,,0,0,Thailand,THA,Thailand,THA,Chachoengsao,TH,,13.679001,101.076004,4,1,Added missing admin-1 capital. Population from GeoNames.,49741,49741,0,7,7,1611439,,,0,0,0,0,0,0,0,0,0,0,0,0,0,0,0,0,0,0,0,0,0,0,0,0,0,0,0,Chachoengsao,P,PPLA,44,49741,0,2,Asia/Bangkok,GeoNames match general.,0,,0,0,0,0,0,0,0,0,0,0,0,0,0,0,0,0,0,0,0,,BKK,18.863814346633905,true,0.9125 
10,1,5,Admin-1 capital,Trat,,,0,Trat,0,0,,0,0,Thailand,THA,Thailand,THA,Trat,TH,,12.237003,102.509002,4,1,Added missing admin-1 capital. Population from GeoNames.,21590,21590,0,7,7,1605279,,,0,0,0,0,0,0,0,0,0,0,0,0,0,0,0,0,0,0,0,0,0,0,0,0,0,0,0,Trat,P,PPLA,49,21590,0,15,Asia/Bangkok,GeoNames match general.,0,,0,0,0,0,0,0,0,0,0,0,0,0,0,0,0,0,0,0,0,,TDX,20.90667347809198,true,0.5700000000000001 
10,1,5,Admin-1 capital,Kalasin,,,0,Kalasin,0,0,,0,0,Thailand,THA,Thailand,THA,Kalasin,TH,,16.427997,103.509001,4,1,Added missing admin-1 capital. Population from GeoNames.,55102,55102,0,8,8,1610469,,,0,0,0,0,0,0,0,0,0,0,0,0,0,0,0,0,0,0,0,0,0,0,0,0,0,0,0,Kalasin,P,PPLA,23,55102,0,152,Asia/Bangkok,GeoNames match general.,0,,0,0,0,0,0,0,0,0,0,0,0,0,0,0,0,0,0,0,0,,ROI,25.805028200195462,true,1.1611111111111112 
10,1,5,Admin-1 capital,Maha Sarakham,,,0,Maha Sarakham,0,0,,0,0,Thailand,THA,Thailand,THA,Maha Sarakham,TH,,16.183998,103.298005,4,1,Added missing admin-1 capital. Population from GeoNames.,51584,51584,0,8,8,1608900,,,0,0,0,0,0,0,0,0,0,0,0,0,0,0,0,0,0,0,0,0,0,0,0,0,0,0,0,Maha Sarakham,P,PPLA,24,51584,0,143,Asia/Bangkok,GeoNames match general.,0,,0,0,0,0,0,0,0,0,0,0,0,0,0,0,0,0,0,0,0,,ROI,25.563639311306574,true,0.9197222222222222 
10,1,5,Admin-1 capital,Roi Et,,,0,Roi Et,0,0,,0,0,Thailand,THA,Thailand,THA,Roi Et,TH,,16.050996,103.654999,4,1,Added missing admin-1 capital. Population from GeoNames.,39328,39328,0,7,7,1607001,,,0,0,0,0,0,0,0,0,0,0,0,0,0,0,0,0,0,0,0,0,0,0,0,0,0,0,0,Roi Et,P,PPLA,25,39328,0,149,Asia/Bangkok,GeoNames match general.,0,,0,0,0,0,0,0,0,0,0,0,0,0,0,0,0,0,0,0,0,,ROI,25.023639311306574,true,0.37972222222222224 
10,1,5,Admin-1 capital,Pattani,,,0,Pattani,0,0,,0,0,Thailand,THA,Thailand,THA,Pattani,TH,,6.864003,101.250001,4,1,Added missing admin-1 capital. Population from GeoNames.,150000,43631,0,9,7,1607978,,,0,0,0,0,0,0,0,0,0,0,0,0,0,0,0,0,0,0,0,0,0,0,0,0,0,0,0,Pattani,P,PPLA,69,0,0,1,Asia/Bangkok,GeoNames match general.,0,,0,0,0,0,0,0,0,0,0,0,0,0,0,0,0,0,0,0,0,,NAW,26.591113113920372,true,1.2602777777777776 
10,1,8,Admin-1 capital,Piggs Peak,,,0,Piggs Peak,0,0,,0,0,Swaziland,SWZ,Swaziland,SWZ,Hhohho,SZ,,-25.961004,31.247001,4,1,Added missing admin-1 capital. Population from GeoNames.,5750,5750,0,5,5,934881,,,0,0,0,0,0,0,0,0,0,0,0,0,0,0,0,0,0,0,0,0,0,0,0,0,0,0,0,Piggs Peak,P,PPLA,1,5750,0,1058,Africa/Mbabane,GeoNames match general.,0,,0,0,0,0,0,0,0,0,0,0,0,0,0,0,0,0,0,0,0,,MTS,21.034757929551116,true,1.390277777777778 
10,1,8,Admin-1 capital,Siteki,,,0,Siteki,0,0,,0,0,Swaziland,SWZ,Swaziland,SWZ,Lubombo,SZ,,-26.454996,31.951999,4,1,Added missing admin-1 capital. Population from GeoNames.,6152,6152,0,5,5,934851,,,0,0,0,0,0,0,0,0,0,0,0,0,0,0,0,0,0,0,0,0,0,0,0,0,0,0,0,Siteki,P,PPLA,2,6152,0,620,Africa/Mbabane,GeoNames match general.,0,,0,0,0,0,0,0,0,0,0,0,0,0,0,0,0,0,0,0,0,,MTS,20.77142459621778,true,1.1269444444444443 
10,1,8,Admin-1 capital,Manzini,,,0,Manzini,0,0,,0,0,Swaziland,SWZ,Swaziland,SWZ,Manzini,SZ,,-26.495001,31.388004,4,1,Added missing admin-1 capital. Population from GeoNames.,110537,110537,0,9,9,934995,,,0,0,0,0,0,0,0,0,0,0,0,0,0,0,0,0,0,0,0,0,0,0,0,0,0,0,0,Manzini,P,PPLA,3,110537,0,617,Africa/Mbabane,GeoNames match general.,0,,0,0,0,0,0,0,0,0,0,0,0,0,0,0,0,0,0,0,0,,MTS,19.888091262884448,true,0.2436111111111111 
10,1,8,Admin-1 capital,Hlatikulu,,,0,Hlatikulu,0,0,,0,0,Swaziland,SWZ,Swaziland,SWZ,Shiselweni,SZ,,-27,31.416697,4,1,Added missing admin-1 capital. Population from GeoNames.,2748,2748,0,4,4,935081,,,0,0,0,0,0,0,0,0,0,0,0,0,0,0,0,0,0,0,0,0,0,0,0,0,0,0,0,Hlatikulu,P,PPLA,4,2748,0,1115,Africa/Mbabane,GeoNames match general.,0,,0,0,0,0,0,0,0,0,0,0,0,0,0,0,0,0,0,0,0,,MTS,21.12059126288445,true,1.4761111111111112 
10,1,8,Admin-1 capital,Somoto,,,0,Somoto,0,0,,0,0,Nicaragua,NIC,Nicaragua,NIC,Madriz,NI,,13.475997,-86.582997,4,1,Added missing admin-1 capital. Population from GeoNames.,20316,20316,0,7,7,3616232,,,0,0,0,0,0,0,0,0,0,0,0,0,0,0,0,0,0,0,0,0,0,0,0,0,0,0,0,Somoto,P,PPL,9,20316,0,706,America/Managua,Geonames ascii name + lat.d + long.d matching.,0,,0,0,0,0,0,0,0,0,0,0,0,0,0,0,0,0,0,0,0,,TGU,21.136690813189418,true,2.7958333333333334 
10,1,6,Admin-1 capital,Aveiro,,,0,Aveiro,0,0,,0,0,Portugal,PRT,Portugal,PRT,Aveiro,PT,,40.641003,-8.650998,4,1,Added missing admin-1 capital. Population from GeoNames.,54162,54162,0,8,8,2742611,,,0,0,0,0,0,0,0,0,0,0,0,0,0,0,0,0,0,0,0,0,0,0,0,0,0,0,0,Aveiro,P,PPLA,2,54162,0,26,Europe/Lisbon,GeoNames match general.,0,,0,0,0,0,0,0,0,0,0,0,0,0,0,0,0,0,0,0,0,,OPO,5.235296033877914,true,1.0577777777777777 
10,1,8,Admin-1 capital,Ocotal,,,0,Ocotal,0,0,,0,0,Nicaragua,NIC,Nicaragua,NIC,Nueva Segovia,NI,,13.629996,-86.472999,4,1,Added missing admin-1 capital. Population from GeoNames.,33928,33928,0,7,7,3617448,,,0,0,0,0,0,0,0,0,0,0,0,0,0,0,0,0,0,0,0,0,0,0,0,0,0,0,0,Ocotal,P,PPL,13,33928,0,599,America/Managua,Geonames ascii name + lat.d + long.d matching.,0,,0,0,0,0,0,0,0,0,0,0,0,0,0,0,0,0,0,0,0,,TGU,20.724468590967195,true,2.383611111111111 
10,1,6,Admin-1 capital,Viana Do Castelo,,,0,Viana Do Castelo,0,0,,0,0,Portugal,PRT,Portugal,PRT,Viana do Castelo,PT,,41.696235,-8.844137,4,1,Added missing admin-1 capital. Population from GeoNames.,15555,15555,0,6,6,2732773,,,0,0,0,0,0,0,0,0,0,0,0,0,0,0,0,0,0,0,0,0,0,0,0,0,0,0,0,Viana do Castelo,P,PPLA,20,15555,0,2,Europe/Lisbon,GeoNames match general.,0,,0,0,0,0,0,0,0,0,0,0,0,0,0,0,0,0,0,0,0,,OPO,4.882796033877914,true,0.7052777777777778 
10,1,6,Admin-1 capital,Leiria,,,0,Leiria,0,0,,0,0,Portugal,PRT,Portugal,PRT,Leiria,PT,,39.738996,-8.804996,4,1,Added missing admin-1 capital. Population from GeoNames.,45112,45112,0,7,7,2267095,,,0,0,0,0,0,0,0,0,0,0,0,0,0,0,0,0,0,0,0,0,0,0,0,0,0,0,0,Leiria,P,PPLA,13,45112,0,89,Europe/Lisbon,GeoNames match general.,0,,0,0,0,0,0,0,0,0,0,0,0,0,0,0,0,0,0,0,0,,LIS,6.292400196431608,true,1.6719444444444445 
10,1,3,Admin-1 capital,Merida,,,0,Merida,0,0,,0,0,Kingdom of Spain,ESP,Spain,ESP,Extremadura,ES,,38.912004,-6.337998,4,1,Added missing admin-1 capital. Population from GeoNames.,52423,52423,0,8,8,2513917,,,0,0,0,0,0,0,0,0,0,0,0,0,0,0,0,0,0,0,0,0,0,0,0,0,0,0,0,Merida,P,PPLA,57,52423,0,225,Europe/Madrid,GeoNames match general.,0,,0,0,0,0,0,0,0,0,0,0,0,0,0,0,0,0,0,0,0,,BJZ,7.184221239640809,true,0.5480555555555555 
10,1,6,Admin-1 capital,Evora,,,0,Evora,0,0,,0,0,Portugal,PRT,Portugal,PRT,Pvora,PT,,38.559996,-7.905996,4,1,Added missing admin-1 capital. Population from GeoNames.,55620,55620,0,8,8,2268406,,,0,0,0,0,0,0,0,0,0,0,0,0,0,0,0,0,0,0,0,0,0,0,0,0,0,0,0,Evora,P,PPLA,8,55620,0,247,Europe/Lisbon,GeoNames match general.,0,,0,0,0,0,0,0,0,0,0,0,0,0,0,0,0,0,0,0,0,,BJZ,8.017276795196365,true,1.381111111111111 
10,1,6,Admin-1 capital,Portalegre,,,0,Portalegre,0,0,,0,0,Portugal,PRT,Portugal,PRT,Portalegre,PT,,39.290004,-7.423002,4,1,Added missing admin-1 capital. Population from GeoNames.,15581,15581,0,6,6,2264508,,,0,0,0,0,0,0,0,0,0,0,0,0,0,0,0,0,0,0,0,0,0,0,0,0,0,0,0,Portalegre,P,PPLA,16,15581,0,557,Europe/Lisbon,GeoNames match general.,0,,0,0,0,0,0,0,0,0,0,0,0,0,0,0,0,0,0,0,0,,BJZ,7.756443461863032,true,1.1202777777777777 
10,1,6,Admin-1 capital,Beja,,,0,Beja,0,0,,0,0,Portugal,PRT,Portugal,PRT,Beja,PT,,38.014002,-7.863002,4,1,Added missing admin-1 capital. Population from GeoNames.,35854,21658,0,7,7,2270985,,,0,0,0,0,0,0,0,0,0,0,0,0,0,0,0,0,0,0,0,0,0,0,0,0,0,0,0,Beja,P,PPLA,3,0,0,254,Europe/Lisbon,GeoNames match general.,0,,0,0,0,0,0,0,0,0,0,0,0,0,0,0,0,0,0,0,0,,FAO,6.698198585972355,true,1.8299999999999998 
10,1,6,Admin-1 capital,Castelo Branco,,,0,Castelo Branco,0,0,,0,0,Portugal,PRT,Portugal,PRT,Castelo Branco,PT,,39.810996,-7.488,4,1,Added missing admin-1 capital. Population from GeoNames.,33479,33479,0,7,7,2269514,,,0,0,0,0,0,0,0,0,0,0,0,0,0,0,0,0,0,0,0,0,0,0,0,0,0,0,0,Castelo Branco,P,PPLA,6,33479,0,384,Europe/Lisbon,GeoNames match general.,0,,0,0,0,0,0,0,0,0,0,0,0,0,0,0,0,0,0,0,0,,BJZ,8.874776795196365,true,2.238611111111111 
10,1,6,Admin-1 capital,Braganca,,,0,Braganca,0,0,,0,0,Portugal,PRT,Portugal,PRT,Braganaa,PT,,41.807997,-6.755003,4,1,Added missing admin-1 capital. Population from GeoNames.,34375,34375,0,7,7,2742027,,,0,0,0,0,0,0,0,0,0,0,0,0,0,0,0,0,0,0,0,0,0,0,0,0,0,0,0,Braganca,P,PPLA,5,34375,0,570,Europe/Lisbon,GeoNames match general.,0,,0,0,0,0,0,0,0,0,0,0,0,0,0,0,0,0,0,0,0,,LEN,9.44927439209333,true,2.435277777777778 
10,1,6,Admin-1 capital,Santarem,,,0,Santarem,0,0,,0,0,Portugal,PRT,Portugal,PRT,Santaram,PT,,39.231,-8.682003,4,1,Added missing admin-1 capital. Population from GeoNames.,29385,29385,0,7,7,2263480,,,0,0,0,0,0,0,0,0,0,0,0,0,0,0,0,0,0,0,0,0,0,0,0,0,0,0,0,Santarem,P,PPLA,18,29385,0,15,Europe/Lisbon,GeoNames match general.,0,,0,0,0,0,0,0,0,0,0,0,0,0,0,0,0,0,0,0,0,,LIS,5.609066863098274,true,0.9886111111111112 
10,1,6,Admin-1 capital,Viseu,,,0,Viseu,0,0,,0,0,Portugal,PRT,Portugal,PRT,Viseu,PT,,40.656996,-7.91,4,1,Added missing admin-1 capital. Population from GeoNames.,26364,26364,0,7,7,2732265,,,0,0,0,0,0,0,0,0,0,0,0,0,0,0,0,0,0,0,0,0,0,0,0,0,0,0,0,Viseu,P,PPLA,22,26364,0,483,Europe/Lisbon,GeoNames match general.,0,,0,0,0,0,0,0,0,0,0,0,0,0,0,0,0,0,0,0,0,,OPO,5.749740478322358,true,1.5722222222222222 
10,1,6,Admin-1 capital,Guarda,,,0,Guarda,0,0,,0,0,Portugal,PRT,Portugal,PRT,Guarda,PT,,40.541004,-7.262001,4,1,Added missing admin-1 capital. Population from GeoNames.,32111,32111,0,7,7,2738785,,,0,0,0,0,0,0,0,0,0,0,0,0,0,0,0,0,0,0,0,0,0,0,0,0,0,0,0,Guarda,P,PPLA,11,0,0,897,Europe/Lisbon,GeoNames match general.,0,,0,0,0,0,0,0,0,0,0,0,0,0,0,0,0,0,0,0,0,,OPO,6.42196270054458,true,2.2444444444444445 
10,1,6,Admin-1 capital,Vila Real,,,0,Vila Real,0,0,,0,0,Portugal,PRT,Portugal,PRT,Vila Real,PT,,41.293998,-7.737002,4,1,Added missing admin-1 capital. Population from GeoNames.,17001,17001,0,6,6,2732438,,,0,0,0,0,0,0,0,0,0,0,0,0,0,0,0,0,0,0,0,0,0,0,0,0,0,0,0,Vila Real,P,PPLA,21,17001,0,431,Europe/Lisbon,GeoNames match general.,0,,0,0,0,0,0,0,0,0,0,0,0,0,0,0,0,0,0,0,0,,OPO,5.523907144989025,true,1.3463888888888889 
10,1,5,Admin-1 capital,An Nabk,Qurayyat,,0,An Nabk,0,0,,0,0,Saudi Arabia,SAU,Saudi Arabia,SAU,Al Jawf,SA,,31.333302,37.333297,4,1,Added missing admin-1 capital.,10000,5000,0,5,4,-1,,,0,0,0,0,0,0,0,0,0,0,0,0,0,0,0,0,0,0,0,0,0,0,0,0,0,0,0,,,,0,0,0,0,,,0,,0,0,0,0,0,0,0,0,0,0,0,0,0,0,0,0,0,0,0,,URY,13.950369562867744,true,0.20916666666666667 
10,1,8,Admin-1 capital,Assen,,,0,Assen,0,0,,0,0,Kingdom of the Netherlands,NLD,Netherlands,NLD,Drenthe,NL,,53.000001,6.550003,4,1,Added missing admin-1 capital. Population from GeoNames.,62237,62237,0,8,8,2759633,,,0,0,0,0,0,0,0,0,0,0,0,0,0,0,0,0,0,0,0,0,0,0,0,0,0,0,0,Assen,P,PPLA,1,62237,0,10,Europe/Amsterdam,GeoNames match general.,0,,0,0,0,0,0,0,0,0,0,0,0,0,0,0,0,0,0,0,0,,GRQ,5.279390966472498,true,0.27694444444444444 
10,1,8,Admin-1 capital,Fatick,,,0,Fatick,0,0,,0,0,Senegal,SEN,Senegal,SEN,Fatick,SM,,14.344002,-16.416,4,1,Added missing admin-1 capital. Population from GeoNames.,24243,24243,0,7,7,2251911,,,0,0,0,0,0,0,0,0,0,0,0,0,0,0,0,0,0,0,0,0,0,0,0,0,0,0,0,Fatick,P,PPLA,9,0,0,4,Africa/Dakar,GeoNames match general.,0,,0,0,0,0,0,0,0,0,0,0,0,0,0,0,0,0,0,0,0,,BJL,14.732843911372342,true,3.2152777777777777 
10,1,8,Admin-1 capital,Maastricht,,,0,Maastricht,0,0,,0,0,Kingdom of the Netherlands,NLD,Netherlands,NLD,Limburg,NL,,50.852997,5.677002,4,1,Added missing admin-1 capital. Population from GeoNames.,122378,122378,0,9,9,2751283,,,0,0,0,0,0,0,0,0,0,0,0,0,0,0,0,0,0,0,0,0,0,0,0,0,0,0,0,Maastricht,P,PPLA,5,122378,0,64,Europe/Amsterdam,GeoNames match general.,0,,0,0,0,0,0,0,0,0,0,0,0,0,0,0,0,0,0,0,0,,MST,7.648040701005277,true,0.2261111111111111 
10,1,8,Admin-1 capital,Zwolle,,,0,Zwolle,0,0,,0,0,Kingdom of the Netherlands,NLD,Netherlands,NLD,Overijssel,NL,,52.524,6.096997,4,1,Added missing admin-1 capital. Population from GeoNames.,111805,111805,0,9,9,2743477,,,0,0,0,0,0,0,0,0,0,0,0,0,0,0,0,0,0,0,0,0,0,0,0,0,0,0,0,Zwolle,P,PPLA,15,111805,0,1,Europe/Amsterdam,GeoNames match general.,0,,0,0,0,0,0,0,0,0,0,0,0,0,0,0,0,0,0,0,0,,GRQ,5.93411318869472,true,0.9316666666666666 
10,1,8,Admin-1 capital,Arnhem,,,0,Arnhem,0,0,,0,0,Kingdom of the Netherlands,NLD,Netherlands,NLD,Gelderland,NL,,51.987996,5.923,4,1,Added missing admin-1 capital. Population from GeoNames.,141674,141674,0,9,9,2759661,,,0,0,0,0,0,0,0,0,0,0,0,0,0,0,0,0,0,0,0,0,0,0,0,0,0,0,0,Arnhem,P,PPLA,3,141674,0,13,Europe/Amsterdam,GeoNames match general.,0,,0,0,0,0,0,0,0,0,0,0,0,0,0,0,0,0,0,0,0,,NRN,2.7514167686396487,false, 
10,1,8,Admin-1 capital,'s-Hertogenbosch,,,0,'s-Hertogenbosch,0,0,,0,0,Kingdom of the Netherlands,NLD,Netherlands,NLD,Noord-Brabant,NL,,51.683337,5.31666,4,1,Added missing admin-1 capital. Population from GeoNames.,134520,134520,0,9,9,2747351,,,0,0,0,0,0,0,0,0,0,0,0,0,0,0,0,0,0,0,0,0,0,0,0,0,0,0,0,'s-Hertogenbosch,P,PPLA,6,134520,0,3,Europe/Amsterdam,GeoNames match general.,0,,0,0,0,0,0,0,0,0,0,0,0,0,0,0,0,0,0,0,0,,EIN,3.053954258068675,true,0.3897222222222222 
10,1,7,Admin-1 capital,Arendal,,,0,Arendal,0,0,,0,0,Kingdom of Norway,NOR,Norway,NOR,Aust-Agder,NO,,58.464756,8.766001,4,1,Added missing admin-1 capital. Population from GeoNames.,30916,30916,0,7,7,3162955,,,0,0,0,0,0,0,0,0,0,0,0,0,0,0,0,0,0,0,0,0,0,0,0,0,0,0,0,Arendal,P,PPLA,2,30916,0,3,Europe/Oslo,GeoNames match general.,0,,0,0,0,0,0,0,0,0,0,0,0,0,0,0,0,0,0,0,0,,KRS,5.752710295497353,false, 
10,1,8,Admin-1 capital,Middelburg,,,0,Middelburg,0,0,,0,0,Kingdom of the Netherlands,NLD,Netherlands,NLD,Zeeland,NL,,51.501996,3.61,4,1,Added missing admin-1 capital. Population from GeoNames.,46485,46485,0,7,7,2750896,,,0,0,0,0,0,0,0,0,0,0,0,0,0,0,0,0,0,0,0,0,0,0,0,0,0,0,0,Middelburg,P,PPLA,10,46485,0,1,Europe/Amsterdam,GeoNames match general.,0,,0,0,0,0,0,0,0,0,0,0,0,0,0,0,0,0,0,0,0,,OST,10.273135447651274,false, 
10,1,7,Admin-1 capital,Vossavangen,,,0,Vossavangen,0,0,,0,0,Kingdom of Norway,NOR,Norway,NOR,Hordaland,NO,,60.630003,6.441003,4,1,Added missing admin-1 capital. Population from GeoNames.,5571,5571,0,5,5,3131329,,,0,0,0,0,0,0,0,0,0,0,0,0,0,0,0,0,0,0,0,0,0,0,0,0,0,0,0,Vossevangen,P,PPL,7,5571,0,69,Europe/Oslo,GeoNames spatial join with similar names only.,0,,0,0,0,0,0,0,0,0,0,0,0,0,0,0,0,0,0,0,0,,SOG,8.086186448131068,true,2.126111111111111 
10,1,7,Admin-1 capital,Leikanger,Systrond,Hermansverk,0,Hermansverk,0,0,,0,0,Kingdom of Norway,NOR,Norway,NOR,Sogn og Fjordane,NO,,61.183296,6.849999,4,1,Added missing admin-1 capital. Population from GeoNames.,1965,1965,0,3,3,3152884,,,0,0,0,0,0,0,0,0,0,0,0,0,0,0,0,0,0,0,0,0,0,0,0,0,0,0,0,Hermansverk,P,PPLA,15,0,0,-9999,Europe/Oslo,GeoNames match general.,0,,0,0,0,0,0,0,0,0,0,0,0,0,0,0,0,0,0,0,0,,SOG,6.564797559242178,true,0.6047222222222222 
10,1,7,Admin-1 capital,Bdrum,,,0,Baerum,0,0,,0,0,Kingdom of Norway,NOR,Norway,NOR,Akershus,NO,,59.913486,11.347237,40,1,Added missing admin-1 capital.,113659,113659,0,9,9,-1,,,0,0,0,0,0,0,0,0,0,0,0,0,0,0,0,0,0,0,0,0,0,0,0,0,0,0,0,,,,0,0,0,0,,,0,,0,0,0,0,0,0,0,0,0,0,0,0,0,0,0,0,0,0,0,,OSL,4.891122722762623,true,0.8958333333333334 
10,1,7,Admin-1 capital,Tdnsberg,,,0,Tonsberg,0,0,,0,0,Kingdom of Norway,NOR,Norway,NOR,Vestfold,NO,,59.264001,10.421001,4,1,Added missing admin-1 capital. Population from GeoNames.,38914,38914,0,7,7,3134331,,,0,0,0,0,0,0,0,0,0,0,0,0,0,0,0,0,0,0,0,0,0,0,0,0,0,0,0,Tonsberg,P,PPLA,20,38914,0,20,Europe/Oslo,GeoNames match general.,0,,0,0,0,0,0,0,0,0,0,0,0,0,0,0,0,0,0,0,0,,TRF,4.1951648968731226,true,0.3911111111111111 
10,1,7,Admin-1 capital,Hamar,,,0,Hamar,0,0,,0,0,Kingdom of Norway,NOR,Norway,NOR,Hedmark,NO,,60.820002,11.069002,4,1,Added missing admin-1 capital. Population from GeoNames.,29479,29479,0,7,7,3154084,,,0,0,0,0,0,0,0,0,0,0,0,0,0,0,0,0,0,0,0,0,0,0,0,0,0,0,0,Hamar,P,PPLA,6,29479,0,123,Europe/Oslo,GeoNames match general.,0,,0,0,0,0,0,0,0,0,0,0,0,0,0,0,0,0,0,0,0,,OSL,5.103622722762624,true,1.1083333333333334 
10,1,6,Admin-1 capital,Baglung,,,0,Baglung,0,0,,0,0,Nepal,NPL,Nepal,NPL,Dhawalagiri,NP,,28.266696,83.583298,4,1,Added missing admin-1 capital. Population from GeoNames.,23296,23296,0,7,7,1283711,,,0,0,0,0,0,0,0,0,0,0,0,0,0,0,0,0,0,0,0,0,0,0,0,0,0,0,0,Baglung,P,PPL,0,23296,0,948,Asia/Kathmandu,Geonames ascii name + lat.d + long.d matching.,0,,0,0,0,0,0,0,0,0,0,0,0,0,0,0,0,0,0,0,0,,PKR,20.3430019590153,true,1.5325 
10,1,6,Admin-1 capital,Bhairawa,,,0,Bhairawa,0,0,,0,0,Nepal,NPL,Nepal,NPL,Lumbini,NP,,27.533304,83.3833,4,1,Added missing admin-1 capital. Population from GeoNames.,63367,63367,0,8,8,1283621,,,0,0,0,0,0,0,0,0,0,0,0,0,0,0,0,0,0,0,0,0,0,0,0,0,0,0,0,Bhairahawa,P,PPL,0,63367,0,88,Asia/Kathmandu,GeoNames spatial join with similar names only.,0,,0,0,0,0,0,0,0,0,0,0,0,0,0,0,0,0,0,0,0,,BWA,19.128330046689555,true,0.24083333333333332 
10,1,6,Admin-1 capital,Dandeldhura,,,0,Dandeldhura,0,0,,0,0,Nepal,NPL,Nepal,NPL,Mahakali,NP,,29.300004,80.600005,4,1,Added missing admin-1 capital. Population from GeoNames.,19014,19014,0,6,6,1283499,,,0,0,0,0,0,0,0,0,0,0,0,0,0,0,0,0,0,0,0,0,0,0,0,0,0,0,0,Dadeldhura,P,PPL,0,19014,0,1699,Asia/Kathmandu,GeoNames spatial join with similar names only.,0,,0,0,0,0,0,0,0,0,0,0,0,0,0,0,0,0,0,0,0,,DHI,21.757883662856425,true,2.387222222222222 
10,1,6,Admin-1 capital,Jumla,,,0,Jumla,0,0,,0,0,Nepal,NPL,Nepal,NPL,Karnali,NP,,29.25,82.216702,4,1,Added missing admin-1 capital. Population from GeoNames.,9073,9073,0,5,5,1283285,,,0,0,0,0,0,0,0,0,0,0,0,0,0,0,0,0,0,0,0,0,0,0,0,0,0,0,0,Jumla,P,PPL,0,9073,0,2663,Asia/Kathmandu,Geonames ascii name + lat.d + long.d matching.,0,,0,0,0,0,0,0,0,0,0,0,0,0,0,0,0,0,0,0,0,,KEP,25.452218989297883,true,6.276388888888889 
10,1,6,Admin-1 capital,Dhangarhi,,,0,Dhangarhi,0,0,,0,0,Nepal,NPL,Nepal,NPL,Achham,NP,,28.694997,80.593003,4,1,Added missing admin-1 capital. Population from GeoNames.,92294,92294,0,8,8,1283467,,,0,0,0,0,0,0,0,0,0,0,0,0,0,0,0,0,0,0,0,0,0,0,0,0,0,0,0,Dhangarhi,P,PPL,0,92294,0,165,Asia/Kathmandu,Geonames ascii name + lat.d + long.d matching.,0,,0,0,0,0,0,0,0,0,0,0,0,0,0,0,0,0,0,0,0,,DHI,19.58260588507865,true,0.21194444444444444 
10,1,6,Admin-1 capital,Bhimphedi,,,0,Bhimphedi,0,0,,0,0,Nepal,NPL,Nepal,NPL,Narayani,NP,,27.550998,85.130002,4,1,Added missing admin-1 capital.,15000,15000,0,6,6,-1,,,0,0,0,0,0,0,0,0,0,0,0,0,0,0,0,0,0,0,0,0,0,0,0,0,0,0,0,,,,0,0,0,0,,"No GeoNames match due to small population, not in GeoNames, or poor NEV placement.",0,,0,0,0,0,0,0,0,0,0,0,0,0,0,0,0,0,0,0,0,,KTM,17.70646357738623,true,1.1400000000000001 
10,1,6,Admin-1 capital,Ramechhap,,,0,Ramechhap,0,0,,0,0,Nepal,NPL,Nepal,NPL,Janakpur,NP,,27.325998,86.086999,4,1,Added missing admin-1 capital.,15000,15000,0,6,6,-1,,,0,0,0,0,0,0,0,0,0,0,0,0,0,0,0,0,0,0,0,0,0,0,0,0,0,0,0,,,,0,0,0,0,,"No GeoNames match due to small population, not in GeoNames, or poor NEV placement.",0,,0,0,0,0,0,0,0,0,0,0,0,0,0,0,0,0,0,0,0,,KTM,18.833685799608453,true,2.2672222222222222 
10,1,6,Admin-1 capital,Rajbiraj,,,0,Rajbiraj,0,0,,0,0,Nepal,NPL,Nepal,NPL,Sagarmatha,NP,,26.533296,86.733298,4,1,Added missing admin-1 capital. Population from GeoNames.,33061,33061,0,7,7,1282884,,,0,0,0,0,0,0,0,0,0,0,0,0,0,0,0,0,0,0,0,0,0,0,0,0,0,0,0,Rajbiraj,P,PPL,0,33061,0,76,Asia/Kathmandu,GeoNames match with ascii name + lat + long whole numbers.,0,,0,0,0,0,0,0,0,0,0,0,0,0,0,0,0,0,0,0,0,,BIR,20.250326523763462,true,1.297222222222222 
10,1,6,Admin-1 capital,Ilam,,,0,Ilam,0,0,,0,0,Nepal,NPL,Nepal,NPL,Mechi,NP,,26.908002,87.926005,4,1,Added missing admin-1 capital. Population from GeoNames.,17491,17491,0,6,6,1283333,,,0,0,0,0,0,0,0,0,0,0,0,0,0,0,0,0,0,0,0,0,0,0,0,0,0,0,0,Ilam,P,PPL,0,17491,0,670,Asia/Kathmandu,Geonames ascii name + lat.d + long.d matching.,0,,0,0,0,0,0,0,0,0,0,0,0,0,0,0,0,0,0,0,0,,BDP,22.59848501960229,true,3.537222222222222 
10,1,8,Admin-1 capital,Wabag,,,0,Wabag,0,0,,0,0,Papua New Guinea,PNG,Papua New Guinea,PNG,Enga,PG,,-5.49,143.718004,4,1,Added missing admin-1 capital. Population from GeoNames.,3958,3958,0,4,4,2084246,,,0,0,0,0,0,0,0,0,0,0,0,0,0,0,0,0,0,0,0,0,0,0,0,0,0,0,0,Wabag,P,PPL,19,3958,0,2136,Pacific/Port_Moresby,Geonames ascii name + lat.d + long.d matching.,0,,0,0,0,0,0,0,0,0,0,0,0,0,0,0,0,0,0,0,0,,WBM,36.28203175209981,true,4.915 
10,1,8,Admin-1 capital,Kundiawa,,,0,Kundiawa,0,0,,0,0,Papua New Guinea,PNG,Papua New Guinea,PNG,Chimbu,PG,,-6.022998,144.960013,4,1,Added missing admin-1 capital. Population from GeoNames.,9383,9383,0,5,5,2093059,,,0,0,0,0,0,0,0,0,0,0,0,0,0,0,0,0,0,0,0,0,0,0,0,0,0,0,0,Kundiawa,P,PPL,8,9383,0,1525,Pacific/Port_Moresby,Geonames ascii name + lat.d + long.d matching.,0,,0,0,0,0,0,0,0,0,0,0,0,0,0,0,0,0,0,0,0,,CMU,31.274212958103224,true,0.08305555555555556 
10,1,8,Admin-1 capital,Kerema,,,0,Kerema,0,0,,0,0,Papua New Guinea,PNG,Papua New Guinea,PNG,Gulf,PG,,-7.927002,145.837999,4,1,Added missing admin-1 capital. Population from GeoNames.,5646,5646,0,5,5,2094144,,,0,0,0,0,0,0,0,0,0,0,0,0,0,0,0,0,0,0,0,0,0,0,0,0,0,0,0,Kerema,P,PPL,2,5646,0,1,Pacific/Port_Moresby,GeoNames match with ascii name + lat + long whole numbers.,0,,0,0,0,0,0,0,0,0,0,0,0,0,0,0,0,0,0,0,0,,LAE,30.975026021127896,false, 
10,1,8,Admin-1 capital,Vanimo,,,0,Vanimo,0,0,,0,0,Papua New Guinea,PNG,Papua New Guinea,PNG,Sandaun,PG,,-2.690001,141.303997,4,1,Added missing admin-1 capital. Population from GeoNames.,11204,11204,0,6,6,2084442,,,0,0,0,0,0,0,0,0,0,0,0,0,0,0,0,0,0,0,0,0,0,0,0,0,0,0,0,Vanimo,P,PPL,18,11204,0,1,Pacific/Port_Moresby,Geonames ascii name + lat.d + long.d matching.,0,,0,0,0,0,0,0,0,0,0,0,0,0,0,0,0,0,0,0,0,,VAI,32.15430961707049,true,0.06083333333333333 
10,1,8,Admin-1 capital,Lorengau,,,0,Lorengau,0,0,,0,0,Papua New Guinea,PNG,Papua New Guinea,PNG,Manus,PG,,-2.032002,147.279997,4,1,Added missing admin-1 capital. Population from GeoNames.,5806,5806,0,5,5,2092164,,,0,0,0,0,0,0,0,0,0,0,0,0,0,0,0,0,0,0,0,0,0,0,0,0,0,0,0,Lorengau,P,PPL,13,5806,0,-9999,Pacific/Port_Moresby,Geonames ascii name + lat.d + long.d matching.,0,,0,0,0,0,0,0,0,0,0,0,0,0,0,0,0,0,0,0,0,,MAS,32.23387676875806,true,0.4305555555555555 
10,1,8,Admin-1 capital,Arawa,,,0,Arawa,0,0,,0,0,Papua New Guinea,PNG,Papua New Guinea,PNG,North Solomons,PG,,-6.228,155.565991,4,1,Added missing admin-1 capital. Population from GeoNames.,40266,40266,0,7,7,2100633,,,0,0,0,0,0,0,0,0,0,0,0,0,0,0,0,0,0,0,0,0,0,0,0,0,0,0,0,Arawa,P,PPL,7,40266,0,6,Pacific/Port_Moresby,Geonames ascii name + lat.d + long.d matching.,0,,0,0,0,0,0,0,0,0,0,0,0,0,0,0,0,0,0,0,0,,CHY,35.620134866502156,true,0 
10,1,8,Admin-1 capital,Kimbe,,,0,Kimbe,0,0,,0,0,Papua New Guinea,PNG,Papua New Guinea,PNG,West New Britain,PG,,-5.550003,150.143014,4,1,Added missing admin-1 capital. Population from GeoNames.,18847,18847,0,6,6,2093967,,,0,0,0,0,0,0,0,0,0,0,0,0,0,0,0,0,0,0,0,0,0,0,0,0,0,0,0,Kimbe,P,PPL,17,18847,0,217,Pacific/Port_Moresby,GeoNames match with ascii name + lat + long whole numbers.,0,,0,0,0,0,0,0,0,0,0,0,0,0,0,0,0,0,0,0,0,,HKN,32.0481783383954,true,0.6716666666666666 
10,1,8,Admin-1 capital,Dubasari,,,0,Dubasari,0,0,,0,0,Moldova,MDA,Moldova,MDA,Transnistria,MD,,47.263056,29.160833,4,0,Added missing admin-1 capital round B. Population from GeoNames.,23254,23254,0,7,7,618365,,,0,0,0,0,0,0,0,0,0,0,0,0,0,0,0,0,0,0,0,0,0,0,0,0,0,0,0,Dubasari,P,PPLA,58,23254,0,38,Europe/Chisinau,GeoNames match general.,0,,0,0,0,0,0,0,0,0,0,0,0,0,0,0,0,0,0,0,0,,KIV,5.622188336624229,false, 
10,1,3,Admin-1 capital,Qacha's Nek,,,0,Qacha's Nek,0,0,,0,0,South Africa,ZAF,South Africa,ZAF,Eastern Cape,ZA,,-30.117267,28.702,4,1,Added missing admin-1 capital. Population from GeoNames.,25573,25573,0,7,7,932218,,,0,0,0,0,0,0,0,0,0,0,0,0,0,0,0,0,0,0,0,0,0,0,0,0,0,0,0,Qacha's Nek,P,PPLA,17,25573,0,1839,Africa/Maseru,GeoNames match general.,0,,0,0,0,0,0,0,0,0,0,0,0,0,0,0,0,0,0,0,0,,MSU,24.114643041318516,true,4.3575 
10,1,8,Admin-1 capital,Hudur,,Xuddur,0,Xuddur,0,0,,0,0,Somalia,SOM,Somalia,SOM,Bakool,SO,,4.183299,43.866703,4,1,Added missing admin-1 capital.,1639,1639,0,3,3,-1,,,0,0,0,0,0,0,0,0,0,0,0,0,0,0,0,0,0,0,0,0,0,0,0,0,0,0,0,,,,0,0,0,0,,"No GeoNames match due to small population, not in GeoNames, or poor NEV placement.",0,,0,0,0,0,0,0,0,0,0,0,0,0,0,0,0,0,0,0,0,,GDE,32.43498073135582,true,11.2775 
10,1,8,Admin-1 capital,Garbahaarey,,,0,Garbahaarey,0,0,,0,0,Somalia,SOM,Somalia,SOM,Gedo,SO,,3.327003,42.227002,4,1,Added missing admin-1 capital. Population from GeoNames.,12652,12652,0,6,6,58994,,,0,0,0,0,0,0,0,0,0,0,0,0,0,0,0,0,0,0,0,0,0,0,0,0,0,0,0,Garbahaarrey,P,PPL,6,12652,0,235,Africa/Mogadishu,GeoNames spatial join with similar names only.,0,,0,0,0,0,0,0,0,0,0,0,0,0,0,0,0,0,0,0,0,,WJR,28.415630070203377,true,8.482777777777777 
10,1,8,Admin-1 capital,Bu'aale,,,0,Bu'aale,0,0,,0,0,Somalia,SOM,Somalia,SOM,Jubbada Dhexe,SO,,1.083303,42.583303,4,1,Added missing admin-1 capital.,1490,1490,0,3,3,-1,,,0,0,0,0,0,0,0,0,0,0,0,0,0,0,0,0,0,0,0,0,0,0,0,0,0,0,0,,,,0,0,0,0,,"No GeoNames match due to small population, not in GeoNames, or poor NEV placement.",0,,0,0,0,0,0,0,0,0,0,0,0,0,0,0,0,0,0,0,0,,WJR,29.32813007020338,true,9.395277777777778 
10,1,8,Admin-1 capital,Dhuusa Mareeb,,,0,Dhuusa Mareeb,0,0,,0,0,Somalia,SOM,Somalia,SOM,Galguduud,SO,,5.742,46.508004,4,1,Added missing admin-1 capital.,447,447,0,2,2,-1,,,0,0,0,0,0,0,0,0,0,0,0,0,0,0,0,0,0,0,0,0,0,0,0,0,0,0,0,,,,0,0,0,0,,"No GeoNames match due to small population, not in GeoNames, or poor NEV placement.",0,,0,0,0,0,0,0,0,0,0,0,0,0,0,0,0,0,0,0,0,,GLK,26.194827582799466,true,4.233333333333333 
6,30,5,Populated place,Nasca,,,0,Nasca,0,0,,0,0,Peru,PER,Peru,PER,Ica,PE,,-14.830013,-74.94001,1,0,Changed scale rank.,23556,23218,23218,7,7,3934356,,Nasca,1,0,23218,23218,0,0,0,20,14,14,5,5,24,24,15,15,-74.975,-74.975,-74.916667,-74.916667,-14.858333,-14.858333,-14.816667,-14.816667,-74.946814,-14.832108,0,Nazca,P,PPL,11,23556,0,595,America/Lima,GeoNames spatial join with similar names only.,0,,0,0,0,0,0,0,0,0,0,0,0,0,0,0,0,0,0,0,0,,AYP,29.836562986016535,false, 
6,30,7,Populated place,Filadelfia,,,0,Filadelfia,0,0,,0,0,Paraguay,PRY,Paraguay,PRY,Boqueran,PY,,-22.339994,-60.02999,1,0,Changed scale rank.,10470,8048,0,6,5,3867291,,Filadelfia,1,0,10470,10470,0,0,0,20,9,9,3,3,14,14,9,9,-60.05,-60.05,-60.008333,-60.008333,-22.366667,-22.366667,-22.341667,-22.341667,-60.029167,-22.352652,0,Filadelfia,P,PPL,24,8048,0,129,America/Asuncion,GeoNames match with ascii name + lat + long whole numbers.,0,,0,0,0,0,0,0,0,0,0,0,0,0,0,0,0,0,0,0,0,,BYC,25.91830075238269,false, 
6,30,8,Admin-1 capital,Bluefields,,,0,Bluefields,0,0,,0,0,Nicaragua,NIC,Nicaragua,NIC,Atl,NI,,11.999977,-83.764949,1,0,Changed scale rank.,44373,35693,0,7,7,3620680,,Bluefields,1,0,35693,35693,0,0,0,20,6,6,2,2,11,11,7,7,-83.775,-83.775,-83.758333,-83.758333,12,12,12.033333,12.033333,-83.766071,12.018452,0,Bluefields,P,PPL,18,44373,0,-9999,America/Managua,Geonames ascii name + lat.d + long.d matching.,0,,0,0,0,0,0,0,0,0,0,0,0,0,0,0,0,0,0,0,0,,TTQ,22.916819223223282,false, 
6,30,3,Admin-1 capital,Melilla,,,0,Melilla,0,0,,0,0,Kingdom of Spain,ESP,Spain,ESP,Melilla,ES,,35.300002,-2.950011,1,0,Changed scale rank.,141308,73460,131418,9,8,2513947,,Melilla,1,0,141308,141308,0,0,0,20,36,36,14,14,46,46,28,28,-2.991667,-2.991667,-2.916667,-2.916667,35.241667,35.241667,35.341667,35.341667,-2.957051,35.289423,0,Melilla,P,PPLA,0,67838,0,70,Africa/Ceuta,GeoNames match general.,0,,0,0,0,0,0,0,0,0,0,0,0,0,0,0,0,0,0,0,0,,MLN,7.036863778095688,false, 
6,30,6,Admin-0 region capital,Funchal,,,0,Funchal,0,0,,0,0,Portugal,PRT,Portugal,PRT,Madeira,PT,,32.649983,-16.88004,1,0,Changed scale rank.,204767,100847,204767,10,9,2267827,,Funchal,1,0,204767,204767,0,0,0,20,60,60,23,23,61,61,38,38,-17,-17,-16.825,-16.825,32.625,32.625,32.691667,32.691667,-16.926155,32.65748,0,Funchal,P,PPLA,10,100847,0,-9999,Atlantic/Madeira,GeoNames match general.,0,,0,0,0,0,0,0,0,0,0,0,0,0,0,0,0,0,0,0,0,,FNC,6.133185812989373,false, 
6,30,8,Admin-1 capital,Bo,,,0,Bo,0,0,,0,0,Sierra Leone,SLE,Sierra Leone,SLE,Southern,SL,,7.970016,-11.740018,1,0,Changed scale rank.,174354,167027,167027,9,9,2410048,,Bo,1,0,167027,167027,0,0,0,20,34,34,13,13,33,33,21,21,-11.775,-11.775,-11.7,-11.7,7.925,7.925,7.991667,7.991667,-11.737292,7.961042,0,Bo,P,PPLA,3,174354,0,149,Africa/Freetown,GeoNames match general.,0,,0,0,0,0,0,0,0,0,0,0,0,0,0,0,0,0,0,0,0,,FNA,10.188801081796893,false, 
6,30,8,Admin-1 capital,Ziguinchor,,,0,Ziguinchor,0,0,,0,0,Senegal,SEN,Senegal,SEN,Ziguinchor,SM,,12.589992,-16.289998,1,0,Changed scale rank.,191716,159778,0,9,9,2243940,,Ziguinchor,1,0,191716,191716,0,0,0,20,31,31,12,12,29,29,18,18,-16.3,-16.3,-16.241667,-16.241667,12.525,12.525,12.591667,12.591667,-16.271959,12.564077,0,Ziguinchor,P,PPLA,12,159778,0,16,Africa/Dakar,GeoNames match general.,0,,0,0,0,0,0,0,0,0,0,0,0,0,0,0,0,0,0,0,0,,ZIG,13.739640237371258,false, 
6,30,6,Populated place,Arlit,Uranium,,0,Arlit,0,0,,0,0,Niger,NER,Niger,NER,Agadez,NE,,18.819974,7.329981,1,0,Changed scale rank.,100000,80000,0,8,8,-1,,Arlit (uranium),0,0,0,0,0,0,0,0,0,0,0,0,0,0,0,0,0,0,0,0,0,0,0,0,0,0,0,,,,0,0,0,0,,"No GeoNames match due to small population, not in GeoNames, or poor NEV placement.",0,,0,0,0,0,0,0,0,0,0,0,0,0,0,0,0,0,0,0,0,,TMR,9.38727510766032,false, 
6,30,6,Populated place,Djado,,,0,Djado,0,0,,0,0,Niger,NER,Niger,NER,Agadez,NE,,21.014982,12.307507,1,0,Changed scale rank.,10,10,0,1,1,-1,,Djado,0,0,0,0,0,0,0,0,0,0,0,0,0,0,0,0,0,0,0,0,0,0,0,0,0,0,0,,,,0,0,0,0,,"No GeoNames match due to small population, not in GeoNames, or poor NEV placement.",0,,0,0,0,0,0,0,0,0,0,0,0,0,0,0,0,0,0,0,0,,DJG,9.292925714788256,false, 
6,30,3,Admin-1 capital,Palma,,Palma De Mallorca,0,Palma,0,0,,0,0,Kingdom of Spain,ESP,Spain,ESP,Islas Baleares,ES,,39.574263,2.654246,1,0,Changed scale rank.,375773,264129,263681,10,10,2512989,,Palma,1,0,264129,264129,0,0,0,20,133,133,51,51,168,168,104,104,2.516667,2.516667,2.808333,2.808333,39.466667,39.466667,39.658333,39.658333,2.649233,39.586629,0,Palma,P,PPLA,7,375773,0,13,Europe/Madrid,GeoNames match general.,0,,0,0,0,0,0,0,0,0,0,0,0,0,0,0,0,0,0,0,0,,PMI,4.255146332301102,false, 
6,30,5,Populated place,Al Wajh,,,0,Al Wajh,0,0,,0,0,Saudi Arabia,SAU,Saudi Arabia,SAU,Tabuk,SA,,26.232416,36.463552,1,0,Changed scale rank.,43237,26636,43237,7,7,108773,,Al Wajh,1,0,43237,43237,0,0,0,20,8,8,3,3,16,16,10,10,36.441667,36.441667,36.475,36.475,26.225,26.225,26.266667,26.266667,36.4575,26.245833,0,Al Wajh,P,PPL,19,26636,0,1,Asia/Riyadh,Geonames ascii name + lat.d + long.d matching.,0,,0,0,0,0,0,0,0,0,0,0,0,0,0,0,0,0,0,0,0,,EJH,12.863530995207121,false, 
6,30,5,Populated place,Rumbek,,,0,Rumbek,0,0,,0,0,South Sudan,SSD,South Sudan,SSD,Lakes,SS,,6.80001,29.683294,21,0,Changed scale rank. Changed country.,32083,3462,3462,7,4,367927,,Rumbek,1,0,3462,3462,0,0,0,20,3,3,1,1,7,7,5,5,29.666667,29.666667,29.683333,29.683333,6.8,6.8,6.816667,6.816667,29.675,6.808333,0,Rumbek,P,PPLA,37,32083,0,407,Africa/Khartoum,Geonames ascii name + lat.d + long.d matching.,0,,0,0,0,0,0,0,0,0,0,0,0,0,0,0,0,0,0,0,0,,JUB,14.564665548492158,false, 
6,30,5,Populated place,Yambio,,,0,Yambio,0,0,,0,0,South Sudan,SSD,South Sudan,SSD,West Equatoria,SS,,4.570534,28.416343,21,0,Changed scale rank. Changed country.,40382,8459,9288,7,5,363656,,Yambio,1,0,8459,8459,0,0,0,20,25,25,10,10,39,39,24,24,28.375,28.375,28.441667,28.441667,4.541667,4.541667,4.6,4.6,28.404454,4.56796,0,Yambio,P,PPLA,45,40382,0,632,Africa/Khartoum,Geonames ascii name + lat.d + long.d matching.,0,,0,0,0,0,0,0,0,0,0,0,0,0,0,0,0,0,0,0,0,,IRP,21.33008400621585,false, 
6,30,5,Populated place,Bor,,,0,Bor,0,0,,0,0,South Sudan,SSD,South Sudan,SSD,Jungoli,SS,,6.207204,31.559148,21,0,Population from GeoNames. Changed scale rank. Changed country.,26782,26782,0,7,7,377241,,Bor,0,2,0,0,0,0,0,0,0,0,0,0,0,0,0,0,0,0,0,0,0,0,0,0,0,0,0,Bor,P,PPLA,51,26782,0,407,Africa/Khartoum,Geonames ascii name + lat.d + long.d matching.,0,,0,0,0,0,0,0,0,0,0,0,0,0,0,0,0,0,0,0,0,,JUB,14.564665548492158,false, 
6,30,5,Populated place,Medani,,,0,Medani,0,0,,0,0,Sudan,SDN,Sudan,SDN,Gezira,SD,,14.39996,33.520011,1,0,Changed scale rank.,332714,284367,284533,10,10,364103,,Medani,1,0,284367,284367,0,0,0,20,95,95,37,37,106,106,66,66,33.483333,33.483333,33.625,33.625,14.3,14.3,14.466667,14.466667,33.542935,14.399167,0,Wad Madani,P,PPLA,38,332714,0,412,Africa/Khartoum,GeoNames spatial join with similar names only.,0,,0,0,0,0,0,0,0,0,0,0,0,0,0,0,0,0,0,0,0,,KRT,12.585385445387066,false, 
6,30,5,Populated place,Gedaref,,,0,Gedaref,0,0,,0,0,Sudan,SDN,Sudan,SDN,Gedarif,SD,,14.039982,35.38,1,0,Changed scale rank.,201282,201282,201282,10,10,379062,,Gedaref,1,0,201282,201282,0,0,0,20,46,46,18,18,46,46,28,28,35.333333,35.333333,35.416667,35.416667,13.991667,13.991667,14.091667,14.091667,35.384015,14.036439,0,Al Qadarif,P,PPLA,39,0,0,635,Africa/Khartoum,GeoNames spatial join with similar names only.,0,,0,0,0,0,0,0,0,0,0,0,0,0,0,0,0,0,0,0,0,,GDQ,14.568003931900153,false, 
6,30,5,Populated place,EdDamer,,,0,EdDamer,0,0,,0,0,Sudan,SDN,Sudan,SDN,River Nile,SD,,17.589972,33.959984,1,0,Changed scale rank.,103941,84856,84856,9,8,380173,,EdDamer,1,0,84856,0,0,0,0,10,14,14,5,5,20,20,12,12,33.941667,33.941667,33.983333,33.983333,17.566667,17.566667,17.616667,17.616667,33.967892,17.590931,0,Ad-Damar,P,PPLA,53,103941,0,362,Africa/Khartoum,GeoNames spatial join with similar names only.,0,,0,0,0,0,0,0,0,0,0,0,0,0,0,0,0,0,0,0,0,,KRT,12.585385445387066,false, 
10,1,6,Admin-1 capital,Trincomalee,,,0,Trincomalee,0,0,,0,0,Sri Lanka,LKA,Sri Lanka,LKA,Trincomalee,LK,,8.568999,81.233002,4,1,Added missing admin-1 capital. Population from GeoNames.,108420,108420,0,9,9,1226260,,,0,0,0,0,0,0,0,0,0,0,0,0,0,0,0,0,0,0,0,0,0,0,0,0,0,0,0,Trincomalee,P,PPL,31,108420,0,1,Asia/Colombo,Geonames ascii name + lat.d + long.d matching.,0,,0,0,0,0,0,0,0,0,0,0,0,0,0,0,0,0,0,0,0,,TRR,20.867049327658535,false, 
6,30,5,Populated place,Wadi Halfa,,,0,Wadi Halfa,0,0,,0,0,Sudan,SDN,Sudan,SDN,Northern,SD,,21.800025,31.349962,1,0,Changed scale rank.,17121,17121,0,6,6,-1,,Wadi Halfa,1,0,17121,17121,0,0,0,20,12,12,5,5,18,18,11,11,31.35,31.35,31.4,31.4,21.775,21.775,21.808333,21.808333,31.374167,21.791944,0,,,,0,0,0,0,,"No GeoNames match due to small population, not in GeoNames, or poor NEV placement.",0,,0,0,0,0,0,0,0,0,0,0,0,0,0,0,0,0,0,0,0,,ABS,13.409053822162196,false, 
6,30,5,Populated place,Merowe,,,0,Merowe,0,0,,0,0,Sudan,SDN,Sudan,SDN,Northern,SD,,18.483302,31.816652,1,0,Changed scale rank.,10234,4576,4576,6,4,370481,,Merowe,1,0,4576,4576,0,0,0,20,4,4,2,2,9,9,6,6,31.808333,31.808333,31.833333,31.833333,18.475,18.475,18.491667,18.491667,31.8225,18.4825,0,Marawi,P,PPL,30,10234,0,276,Africa/Khartoum,GeoNames spatial join with similar names only.,0,,0,0,0,0,0,0,0,0,0,0,0,0,0,0,0,0,0,0,0,,KRT,12.585385445387066,false, 
