airport,time,valid,lat,lon,name,timetoairport
MVD,25.154565472531484,true,-33.543999,-56.900997,Trinidad,2.7575
TML,17.108775578041254,true,9.261,0.789004,Bassar,3.854444444444445
MVD,23.904843250309263,true,-34.099002,-56.214998,Florida,1.5077777777777779
MVD,23.229565472531483,true,-34.538004,-56.284001,Canelones,0.8325
TML,19.073497800263475,true,8.557002,0.984996,Sotouboua,5.819166666666666
GAE,8.59685365681868,true,33.399999,10.4167,Medenine,0.9888888888888889
GAF,9.508572524146533,true,33.689997,8.971003,Kebili,1.9547222222222222
DJE,9.770323765303026,true,33.000003,10.466704,Tataouine,2.171111111111111
TUN,5.151191955936781,true,36.866673,10.199998,L'Ariana,0.09472222222222222
AAE,9.132630774432862,true,36.500004,8.749999,Jendouba,2.198888888888889
TEE,9.264542736352738,true,35.216703,8.716699,Kasserine,1.7033333333333334
GAF,9.286628079702087,true,35.016696,9.500004,Sdid Bouzid,1.7327777777777778
NBE,7.584682047453423,true,36.083304,9.383302,Siliana,2.383888888888889
MIR,7.4399171843871175,true,35.730702,10.767295,Monastir,0.16611111111111113
MIR,8.237972739942673,true,35.483913,11.040877,Mahdia,0.9641666666666667
NBE,6.295793158564535,true,36.399996,10.146997,Zaghouan,1.095
DIN,23.760439644539268,true,21.740004,103.343005,Luan Chau,1.8919444444444444
HAN,21.520467636032777,true,22.133333,105.833333,Bac Kan,2.136388888888889
DIN,24.494606311205935,true,21.328002,103.910005,Son La,2.626111111111111
HPH,28.496360913749456,true,21.845997,106.757002,Lang Son,3.142777777777778
HAN,21.081023191588333,true,21.817998,105.211,Tuyen Quang,1.6969444444444444
HAN,21.047134302699444,true,21.705003,104.875003,Yen Bai,1.6630555555555555
HPH,26.218583135971677,true,20.942001,106.331005,Hai Duong,0.865
HPH,26.557749802638345,true,20.450304,106.33303,Thai Binh,1.2041666666666666
TBB,23.15806231531886,true,13.082004,109.315999,Tuy Hoa,0.1361111111111111
HUI,23.59656843686884,true,16.849998,107.133301,Dong Ha,1.2594444444444444
AEB,28.935184012651238,true,22.663998,106.268005,Cao Bang,5.593055555555555
SAP,20.824373613356425,true,15.059997,-87.290001,Yoro,2.641111111111111
TGU,21.10252414652275,true,14.333004,-88.1667,La Esperanza,2.7616666666666663
TGU,19.52030192430053,true,14.319999,-87.684003,La Paz,1.1794444444444445
SAP,20.06992916891198,true,14.919003,-88.236,Santa Barbara,1.8866666666666667
TGU,19.501135257633862,true,13.943997,-86.850999,Yuscaran,1.1602777777777777
SAL,20.592386185878134,true,14.436999,-89.181999,Nueva Ocotepeque,1.9916666666666667
SAP,21.59131805780087,true,14.583303,-88.583301,Gracias,3.4080555555555554
PAP,23.076001217779442,true,18.633935,-74.118425,Jeremie,4.904166666666667
PAP,19.636834551112774,true,18.234999,-72.537003,Jacmel,1.465
AOE,9.582767132014496,true,40.149999,29.982997,Bilecik,1.0725
KFS,9.029998244432957,true,41.389002,33.783003,Kastamonu,0.14944444444444444
SAW,7.643498110793492,true,40.766661,30.400003,Sakarya,1.3972222222222221
ISE,9.290709689128779,true,37.71666,30.283336,Burdur,0.48833333333333334
NAV,9.52878023400847,true,38.624004,34.723999,Nevsehir,0.44111111111111106
NAV,10.192391345119582,true,39.141999,34.171003,Kirsehir,1.1047222222222222
HTY,9.966377007423654,true,36.233334,36.116677,Antioch,0.4072222222222222
TZX,13.56803936465095,true,40.913001,38.390005,Giresun,1.9144444444444444
BGG,12.15971240840755,true,38.885004,40.498003,Bingol,0.3030555555555556
VAS,10.822072351971046,true,40.305996,36.563005,Tokat,1.4849999999999999
BUS,13.311680109694615,true,41.183001,41.817997,Artvin,1.541388888888889
MSR,13.050243733202658,true,38.394,42.122998,Bitlis,1.038888888888889
EBB,16.72542976555803,true,-0.308889,32.225,Kalangala,3.894722222222222
NAV,10.594891345119581,true,37.976004,34.694002,Nigde,1.5072222222222222
NAV,11.854613567341804,true,39.817998,34.814997,Yozgat,2.766944444444445
TZX,13.742761586873172,true,40.464,39.484,Gumushane,2.0891666666666664
BAL,13.22558003376284,true,37.944,41.932999,Siirt,1.2425
EZS,13.403912467790393,true,39.1167,39.533302,Tunceli,1.713611111111111
KTL,24.036962327114196,true,1.460833,33.936111,Kumi,3.301111111111111
PAF,20.083577643868153,true,1.738889,33.159444,Kaberamaido,4.794722222222222
EBB,14.65654087666914,true,0.7025,32.888611,Kayunga,1.8258333333333332
EBB,14.942929765558029,true,0.609167,33.468611,Iganga,2.1122222222222224
EBB,15.472096432224696,true,0.947222,33.119722,Kamuli,2.641388888888889
KTL,24.07862899378086,true,1.145,33.709444,Pallisa,3.3427777777777776
EBB,13.748763098891363,true,0.225,32.313611,Mpigi,0.9180555555555556
RUA,18.990714720249407,true,3.361389,31.809722,Adjumani,3.5349999999999997
PAF,16.809410977201487,true,2.475833,31.1025,Nebbi,1.5205555555555557
EBB,15.098207543335807,true,1.308889,32.456389,Nakasongola,2.2675
EBB,15.283763098891363,true,0.916111,31.774167,Kiboga,2.4530555555555558
EBB,13.931818654446918,true,0.583299,32.5333,Bombo,1.1011111111111112
PAF,17.785799866090375,true,1.674444,31.715,Masindi,2.4969444444444444
BUX,30.582453956950935,true,0.671004,30.275002,Fort Portal,6.711666666666667
KTL,23.84640677155864,true,1.25,34.3,Sironko,3.1105555555555555
BUX,32.88328729028427,true,0.8,31.066667,Kibale,9.0125
KIS,17.396957289230357,true,0.454444,34.075833,Busia,1.5263888888888888
KTL,25.338628993780862,true,1.891111,33.966111,Katakwi,4.602777777777778
BUD,6.008315947985804,true,47.090997,17.911,Veszprem,1.5341666666666667
GRZ,7.9411314170212925,true,46.844001,16.84,Zalaegerszeg,1.856388888888889
BUD,5.466371503541359,true,47.549997,18.433,Tatabanya,0.9922222222222222
OSI,6.314544018855546,true,46.343997,18.712999,Szekszard,1.713611111111111
BUD,6.0541492813191375,true,48.105,19.826002,Salgotarjan,1.5799999999999998
BUD,6.019149281319137,true,47.895003,20.383003,Eger,1.5450000000000002
KGL,17.652467257493214,true,-0.879444,30.264167,Ntungamo,2.4724999999999997
KGL,16.501078368604325,true,-2.166696,30.533302,Kibungo,1.3211111111111111
CRA,7.134074467889878,true,45.045,23.274001,Targu Jiu,1.8569444444444445
CRA,6.154074467889878,true,44.434998,24.371002,Slatina,0.8769444444444444
OTP,7.524764971871169,true,43.901631,25.286707,Alexandria,2.0236111111111112
OTP,7.043098305204502,true,44.937999,25.459003,Targoviste,1.5419444444444443
OTP,7.25337608298228,true,43.929999,25.84,Giurgiu,1.7522222222222223
CND,10.367119126173197,true,44.569998,27.381997,Slobozia,1.5555555555555556
MLH,6.042566468014768,true,47.369997,7.344999,Delemont,0.7566666666666666
BRN,4.066909254146536,true,46.998999,6.922999,Neuchatel,0.7872222222222223
BRN,4.95885369859098,true,46.239003,7.353999,Sion,1.6791666666666667
ACH,7.353998044538785,true,47.383299,9.283302,Herisau,0.3561111111111111
ACH,7.2439980445387855,true,47.422998,9.361999,Saint Gallen,0.2461111111111111
LUG,6.0142495942046885,true,46.197,9.019999,Bellinzona,0.4286111111111111
FDH,6.591174652966534,true,47.567997,9.108001,Frauenfeld,1.0575
BLE,6.8031311991611245,true,60.613002,15.647005,Falun,0.4388888888888889
SDL,7.23607078307962,true,62.633997,17.934004,Harnosand,0.4494444444444444
RNB,9.212154369957842,true,56.203002,15.296005,Karlskrona,0.1836111111111111
CLJ,6.683024747573724,true,47.138004,24.513004,Bistrita,1.6522222222222223
SUJ,9.474668610178302,true,47.175003,23.063004,Zalau,1.261388888888889
SUJ,8.440779721289413,true,47.791998,22.885002,Satu Mare,0.2275
TGM,7.83664225871931,true,45.867996,25.793001,Sfintu-Gheorghe,2.6969444444444446
TGM,7.200253369830422,true,46.360998,25.524001,Miercurea Cuic,2.0605555555555557
IAS,7.49415383892992,true,46.940004,26.382997,Piatra-Neamt,2.0419444444444443
CND,11.02795245950653,true,45.291996,27.969004,Braila,2.2163888888888885
IAS,6.637764950041031,true,46.633329,27.733339,Vaslui,1.1855555555555557
KEP,21.49888565596455,true,28.35,82.183303,Salyan,2.3230555555555554
HGN,23.800714989970885,true,19.301004,97.968997,Mae Hong Son,0.022500000000000003
HKT,21.40626187824472,true,8.451,98.533999,Phangnga,0.795
KAW,37.82067991900701,true,9.962001,98.638003,Ranong,11.45
KBV,21.357183527991285,true,8.052003,98.911999,Krabi,0.3225
TST,26.00700168757092,true,7.614999,100.081,Phatthalung,0.8613888888888889
ESB,10.427931989317724,true,40.607001,33.621004,Cankiri,1.6825
LGK,29.55597834618258,true,6.616701,100.066699,Satun,4.0938888888888885
CNX,22.306033205726848,true,18.503001,99.073999,Lamphun,0.7272222222222222
PHS,26.001223750379,true,16.472997,99.529003,Kamphaeng Phet,1.9875
PHS,25.287890417045666,true,16.439004,100.349002,Phichit,1.2741666666666667
PHS,26.257057083712333,true,16.418997,101.159002,Phetchabun,2.243333333333333
DMK,23.370774646415754,true,14.471001,100.128997,Supham Buri,1.4255555555555555
DMK,23.129663535304644,true,14.583303,100.45,Ang Thong,1.1844444444444444
DMK,24.244663535304642,true,15.179004,100.126,Chainat,2.2994444444444446
DMK,23.31994131308242,true,14.200002,101.215999,Nakhon Nayok,1.3747222222222222
DMK,23.600496868637975,true,14.886999,100.401004,Sing Buri,1.6552777777777776
DMK,23.00855242419353,true,13.817997,100.063999,Nakhon Pathom,1.0633333333333332
CJM,26.879054143458333,true,11.802996,99.800002,Prachuap Khiri Khan,2.2991666666666664
BKK,19.291036568856125,true,13.536,100.274005,Samut Sakhon,1.3397222222222223
ROI,25.823361533528796,true,15.787998,104.150998,Yasothon,1.1794444444444445
DMK,23.30494131308242,true,13.412997,100.000999,Samut Songkhram,1.359722222222222
BKK,18.863814346633905,true,13.679001,101.076004,Chachoengsao,0.9125
TDX,20.90667347809198,true,12.237003,102.509002,Trat,0.5700000000000001
ROI,25.805028200195462,true,16.427997,103.509001,Kalasin,1.1611111111111112
ROI,25.563639311306574,true,16.183998,103.298005,Maha Sarakham,0.9197222222222222
ROI,25.023639311306574,true,16.050996,103.654999,Roi Et,0.37972222222222224
NAW,26.591113113920372,true,6.864003,101.250001,Pattani,1.2602777777777776
MTS,21.034757929551116,true,-25.961004,31.247001,Piggs Peak,1.390277777777778
MTS,20.77142459621778,true,-26.454996,31.951999,Siteki,1.1269444444444443
MTS,19.888091262884448,true,-26.495001,31.388004,Manzini,0.2436111111111111
MTS,21.12059126288445,true,-27,31.416697,Hlatikulu,1.4761111111111112
TGU,21.136690813189418,true,13.475997,-86.582997,Somoto,2.7958333333333334
OPO,5.235296033877914,true,40.641003,-8.650998,Aveiro,1.0577777777777777
TGU,20.724468590967195,true,13.629996,-86.472999,Ocotal,2.383611111111111
OPO,4.882796033877914,true,41.696235,-8.844137,Viana Do Castelo,0.7052777777777778
LIS,6.292400196431608,true,39.738996,-8.804996,Leiria,1.6719444444444445
BJZ,7.184221239640809,true,38.912004,-6.337998,Merida,0.5480555555555555
BJZ,8.017276795196365,true,38.559996,-7.905996,Evora,1.381111111111111
BJZ,7.756443461863032,true,39.290004,-7.423002,Portalegre,1.1202777777777777
FAO,6.698198585972355,true,38.014002,-7.863002,Beja,1.8299999999999998
BJZ,8.874776795196365,true,39.810996,-7.488,Castelo Branco,2.238611111111111
LEN,9.44927439209333,true,41.807997,-6.755003,Braganca,2.435277777777778
LIS,5.609066863098274,true,39.231,-8.682003,Santarem,0.9886111111111112
OPO,5.749740478322358,true,40.656996,-7.91,Viseu,1.5722222222222222
OPO,6.42196270054458,true,40.541004,-7.262001,Guarda,2.2444444444444445
OPO,5.523907144989025,true,41.293998,-7.737002,Vila Real,1.3463888888888889
URY,13.950369562867744,true,31.333302,37.333297,An Nabk,0.20916666666666667
GRQ,5.279390966472498,true,53.000001,6.550003,Assen,0.27694444444444444
BJL,14.732843911372342,true,14.344002,-16.416,Fatick,3.2152777777777777
MST,7.648040701005277,true,50.852997,5.677002,Maastricht,0.2261111111111111
GRQ,5.93411318869472,true,52.524,6.096997,Zwolle,0.9316666666666666
EIN,3.053954258068675,true,51.683337,5.31666,'s-Hertogenbosch,0.3897222222222222
SOG,8.086186448131068,true,60.630003,6.441003,Vossavangen,2.126111111111111
SOG,6.564797559242178,true,61.183296,6.849999,Leikanger,0.6047222222222222
OSL,4.891122722762623,true,59.913486,11.347237,Bdrum,0.8958333333333334
TRF,4.1951648968731226,true,59.264001,10.421001,Tdnsberg,0.3911111111111111
OSL,5.103622722762624,true,60.820002,11.069002,Hamar,1.1083333333333334
PKR,20.3430019590153,true,28.266696,83.583298,Baglung,1.5325
BWA,19.128330046689555,true,27.533304,83.3833,Bhairawa,0.24083333333333332
DHI,21.757883662856425,true,29.300004,80.600005,Dandeldhura,2.387222222222222
KEP,25.452218989297883,true,29.25,82.216702,Jumla,6.276388888888889
DHI,19.58260588507865,true,28.694997,80.593003,Dhangarhi,0.21194444444444444
KTM,17.70646357738623,true,27.550998,85.130002,Bhimphedi,1.1400000000000001
KTM,18.833685799608453,true,27.325998,86.086999,Ramechhap,2.2672222222222222
BIR,20.250326523763462,true,26.533296,86.733298,Rajbiraj,1.297222222222222
BDP,22.59848501960229,true,26.908002,87.926005,Ilam,3.537222222222222
WBM,36.28203175209981,true,-5.49,143.718004,Wabag,4.915
CMU,31.274212958103224,true,-6.022998,144.960013,Kundiawa,0.08305555555555556
VAI,32.15430961707049,true,-2.690001,141.303997,Vanimo,0.06083333333333333
MAS,32.23387676875806,true,-2.032002,147.279997,Lorengau,0.4305555555555555
CHY,35.620134866502156,true,-6.228,155.565991,Arawa,0
HKN,32.0481783383954,true,-5.550003,150.143014,Kimbe,0.6716666666666666
MSU,24.114643041318516,true,-30.117267,28.702,Qacha's Nek,4.3575
GDE,32.43498073135582,true,4.183299,43.866703,Hudur,11.2775
WJR,28.415630070203377,true,3.327003,42.227002,Garbahaarey,8.482777777777777
WJR,29.32813007020338,true,1.083303,42.583303,Bu'aale,9.395277777777778
GLK,26.194827582799466,true,5.742,46.508004,Dhuusa Mareeb,4.233333333333333
QOW,13.443189626137029,true,5.532003,7.486002,Umuahia,0.8138888888888889
CMB,18.22813465687405,true,6.693003,80.386003,Ratnapura,1.7111111111111112
CBQ,13.9989517553839,true,5.007996,7.849999,Uyo,1.26
QOW,12.998745181692584,true,5.492997,7.026004,Owerri,0.36944444444444446
FNJ,20.239293060632413,true,38.507004,125.762005,Sariwon,1.3591666666666666
FNJ,19.740959727299078,true,39.488004,125.463997,Sin-Ni,0.8608333333333333
UUD,20.474449505393398,true,50.249997,106.200001,Suchboatar,3.23
WDH,21.498386439250066,true,-21.436002,15.950998,Omaruru,3.4619444444444443
WVB,22.944346959368282,true,-21.939003,15.852996,Karibib,2.417777777777778
WDH,22.346997550361177,true,-19.639998,17.342002,Otavi,4.310555555555555
WDH,19.60533088369451,true,-22.455,18.963001,Gobabis,1.568888888888889
DAR,17.39668050540603,true,-6.766704,38.916703,Kibaha,0.8805555555555556
ZNZ,17.16836801979298,true,-5.878998,39.259999,Mkokotoni,0.7619444444444444
BRN,3.807742587479869,true,46.8,7.149997,Fribourg,0.5280555555555556
MLH,5.617010912459213,true,47.483001,7.737003,Liestal,0.33111111111111113
BRN,3.956631476368758,true,47.212002,7.536997,Solothurn,0.6769444444444445
BRN,4.578020365257647,true,46.899,8.243002,Sarnen,1.2983333333333333
KSD,8.617258263452584,true,58.705002,13.827997,Mariestad,1.7619444444444445
THN,9.165995679556351,true,58.363002,12.330001,Vannersborg,0.19777777777777777
ACH,7.497609155649896,true,47.333304,9.416701,Appenzell,0.49972222222222223
NOC,3.879815782908966,true,53.633333,-8.183333,Ros Comain,0.8358333333333333
ZIG,16.56047357070459,true,12.268998,-16.164999,Cacheu,2.8208333333333333
OXB,14.344949540692944,true,12.492999,-15.227,Farim,2.6344444444444446
OXB,15.586338429581833,true,11.772999,-15.194997,Fulacunda,3.8758333333333335
OXB,14.766060651804056,true,12.279996,-14.234003,Gabu,3.055555555555556
ROB,23.439046787407044,true,4.799997,-8.166699,Barclayville,10.885
ROB,18.480435676295933,true,8.416701,-9.749997,Voinjama,5.926388888888889
MLW,13.384393100197316,true,6.433299,-10.600002,Bensonville,0.5738888888888888
ROB,13.281546787407041,true,6.525999,-10.349001,Kakata,0.7274999999999999
ROB,16.252380120740376,true,7.371,-8.684999,Sanniquellie,3.6983333333333333
ROB,15.802657898518152,true,5.464998,-9.577997,Rivercess,3.248611111111111
BRI,7.010503854581236,true,40.642002,15.798996,Potenza,2.104722222222222
NAP,6.773439273314516,true,41.562999,14.655997,Campobasso,2.0572222222222223
VDA,12.835914538717828,true,30.192003,35.736004,Ma'an,2.5
LUX,3.399636516213725,true,49.883301,6.166702,Diekirch,0.5477777777777778
LUX,3.156025405102614,true,49.699998,6.333301,Grevenmacher,0.30416666666666664
IPH,26.502301049972225,true,4.184001,102.042001,Kuala Lipis,3.5722222222222224
SZB,26.025435469991105,true,3.066696,101.549998,Shah Alam,0.31444444444444447
NYK,21.113095791822925,true,-0.416997,36.951004,Nyeri,0.6880555555555555
MSU,20.765754152429626,true,-29.152998,27.753004,Teyateyaneng,1.0086111111111111
MSU,21.44908748576296,true,-30.159,27.479998,Mohales Hoek,1.6919444444444445
MSU,22.321031930207404,true,-30.411,27.716005,Moyeni,2.563888888888889
MSU,21.604087485762957,true,-28.878003,28.055998,Hlotse,1.8469444444444443
MSU,22.06047637465185,true,-28.749996,28.250002,Butha-Buthe,2.3033333333333332
PZB,24.142936301839075,true,-29.291004,29.078002,Mokhotlong,4.272222222222222
SAL,20.469886185878135,true,13.919004,-89.845002,Ahuachapan,1.8691666666666669
SAL,19.540997296989243,true,13.716702,-88.933302,Cojutepeque,0.9402777777777778
SAL,19.419608408100355,true,13.673997,-89.289998,Nueva San Salvador,0.8188888888888889
SAL,19.109608408100357,true,13.508001,-88.867998,Zacatecoluca,0.508888888888889
TGU,20.981968590967195,true,13.331997,-87.839001,La Union,2.641111111111111
TGU,21.196135257633863,true,13.699998,-88.100001,San Francisco Gotera,2.855277777777778
SAL,19.4665528525448,true,13.641003,-88.785,San Vicente,0.8658333333333333
SAL,20.00683063032258,true,13.346001,-88.432002,Usulutan,1.406111111111111
SAL,20.165997296989243,true,14.072004,-89.093996,Chalatenango,1.5652777777777778
MBJ,15.312064504677828,true,18.442998,-78.179004,Lucea,0.7241666666666667
MBJ,16.36067561578894,true,18.033003,-77.499999,Mandeville,1.7727777777777776
MBJ,15.758453393566716,true,18.030996,-77.851997,Black River,1.1705555555555556
MBJ,15.082342282455606,true,18.479583,-77.65605,Falmouth,0.49444444444444446
MBJ,15.529008949122272,true,18.163998,-77.948001,Savanna-la-Mar,0.9411111111111111
KIN,16.643282803800016,true,18.159003,-76.380003,Port Antonio,2.1055555555555556
KIN,16.30661613713335,true,18.432639,-77.199525,St. Ann's Bay,1.768888888888889
KIN,15.98022724824446,true,18.377001,-76.899995,Port Maria,1.4425
KIN,14.961893914911126,true,18.0333,-76.799997,Half Way Tree,0.42416666666666664
KIN,15.669671692688905,true,17.891001,-76.329,Port Morant,1.1319444444444444
STI,20.336944999779003,true,19.504998,-71.344989,Sabaneta,1.7969444444444445
STI,19.639444999779002,true,19.551996,-71.074997,Mao,1.0994444444444444
AZS,19.380607173600083,true,19.059003,-70.152003,Cotui,1.2858333333333334
GIU,20.367548471601815,true,8.033004,79.826005,Puttalan,1.7261111111111112
SSG,13.812830803720583,true,3.449997,8.550001,Luba,0.8380555555555556
SPU,5.42153964633772,true,43.727222,15.905833,Sibenik,0.8722222222222222
CAI,9.30732113663698,true,30.591999,30.899997,Shibin el Kom,1.422222222222222
CAI,8.746487803303648,true,30.466665,31.183336,Benha,0.8613888888888889
CAI,8.722321136636982,true,30.583332,31.51666,Zagazig,0.8372222222222222
CAI,9.830654469970314,true,31.109004,30.935998,Kafr el Sheikh,1.9455555555555555
JIB,15.563882252526897,true,11.104002,42.372001,Dikhil,1.6633333333333333
JIB,16.70110447474912,true,11.783304,42.900003,Tadjoura,2.8005555555555555
TLL,6.637992960593216,true,58.943056,23.541389,Haapsalu,1.6391666666666667
KWI,10.191581995007791,true,29.33334,47.999998,Hawalli,0.40694444444444444
LLW,21.11150081631848,true,-11.9,33.6,Mzimba,3.326111111111111
CIP,21.187602724078168,true,-13.8,32.9,Mchinji,0.6708333333333333
BLZ,20.46186510786774,true,-14.966667,35.516667,Machinga,2.3733333333333335
BLZ,19.84158733008996,true,-14.816667,34.633333,Ntcheu,1.7530555555555556
LLW,19.32177859409626,true,-14.366667,34.333333,Dedza,1.536388888888889
BLZ,18.778809552312183,true,-15.7,35.183333,Chiradzulu,0.6902777777777778
BLZ,20.616031774534406,true,-16.916667,35.266667,Nsanje,2.5275000000000003
BLZ,19.22408733008996,true,-15.616667,34.516667,Mwanza,1.1355555555555557
BLZ,19.27158733008996,true,-16.033333,35.5,Mulanje,1.1830555555555555
TAP,22.690983759555856,true,14.537097,-91.677015,Retalhuleu,1.7694444444444446
GUA,21.07892223242215,true,15.102999,-90.314001,Salama,2.49
TAP,22.49126153733363,true,14.966001,-91.8,San Marcos,1.5697222222222222
GUA,19.474477787977705,true,14.661999,-90.819999,Chimaltenango,0.8855555555555555
GUA,19.27614445464437,true,14.566698,-90.733302,Antigua Guatemala,0.6872222222222223
GUA,20.82642223242215,true,14.772996,-91.182996,Solola,2.2375
GUA,20.169200010199926,true,14.85,-90.016704,El Progreso,1.5802777777777777
GUA,21.553088899088817,true,14.913999,-91.358001,Totonicapan,2.9641666666666664
GUA,19.598366676866593,true,14.279004,-90.297999,Cuilapa,1.0094444444444446
GUA,21.306977787977704,true,14.796999,-89.543997,Chiquimula,2.718055555555556
GUA,20.50142223242215,true,14.633001,-89.989002,Jalapa,1.9125
POP,16.198900414546873,true,19.790217,-70.690247,Puerto Plata,0.275
GUA,20.989477787977705,true,14.972004,-89.529003,Zacapa,2.4005555555555556
STI,18.79722277755678,true,19.396998,-70.523001,Moca,0.25722222222222224
STI,19.05472277755678,true,19.383003,-70.416701,Salcedo,0.5147222222222222
PAP,19.065167884446108,true,18.493002,-71.850996,Jimani,0.8933333333333333
PAP,20.25489010666833,true,18.875997,-71.706995,Comendador,2.0830555555555557
JBQ,22.26987137386717,true,18.453996,-70.729002,Azua,1.6927777777777777
PAP,21.03127899555722,true,18.037998,-71.740998,Pedernales,2.8594444444444442
STI,19.430278333112337,true,18.942003,-70.408998,Bonao,0.8902777777777777
JBQ,21.466538040533834,true,18.279999,-70.331003,Bani,0.8894444444444445
LRM,19.317275784292256,true,18.764001,-69.256997,Hato Mayor,1.0922222222222222
JBQ,21.508760262756056,true,18.807003,-69.784002,Monte Plata,0.9316666666666666
AZS,18.50866272915564,true,19.376001,-69.847001,Nagua,0.41388888888888886
AZS,18.82505161804453,true,19.212003,-69.332004,Samana,0.7302777777777778
JBQ,21.11209359608939,true,18.415998,-70.109001,San Cristobal,0.535
LRM,18.973664673181144,true,18.764001,-69.035003,El Seibo,0.7486111111111111
LRM,18.729775784292258,true,18.615996,-68.707997,Higuey,0.5047222222222223
ZIG,17.890195792926814,true,13.551003,-14.767002,Georgetown,4.150555555555555
OXB,17.787727318470722,true,13.310001,-14.222996,Basse Santa Su,6.077222222222222
BJL,13.120899466927897,true,13.493997,-16.094996,Kerewan,1.6033333333333333
BJL,13.978677244705674,true,13.377312,-15.678566,Mansa Konko,2.461111111111111
NYI,13.104260442464284,true,7.335999,-2.336003,Sunyani,0.07916666666666666
BSG,19.389870724914047,true,2.152998,11.330002,Ebebiyin,4.016666666666667
TAY,8.597799518200247,true,58.363889,25.59,Viljandi,1.1252777777777778
BZV,19.69976487047326,true,-4.164003,13.554,Madingou,5.036666666666666
PNR,25.146935165193554,true,-2.856996,11.026998,Tchibanga,10.47638888888889
VOL,9.024314632450299,true,38.898999,22.434004,Lamia,1.236388888888889
AXD,9.412440555035959,true,41.133303,25.416703,Komatini,0.7577777777777778
BEY,7.979760618759695,true,33.833304,35.533297,B'abda,0.18194444444444444
BEY,8.801149507648583,true,33.383304,35.450002,Nabatiye et Tahta,1.0033333333333334
TMP,5.967917880069137,true,60.996996,24.472,Hameenlinna,0.9336111111111111
MHQ,6.790647026530457,true,60.096996,19.949004,Mariehamn,0.1636111111111111
LPP,8.68772127925226,true,60.876,26.709004,Kouvola,1.1005555555555555
LPP,9.076054612585594,true,61.689996,27.285003,Mikkeli,1.4888888888888887
THL,23.947254408822943,true,20.2775,100.412778,Ban Houayxay,2.0344444444444445
LXG,24.836151877801058,true,20.950002,101.416699,Louang Namtha,0.07361111111111111
PKZ,25.670171710180654,true,14.8833,105.866704,Champasak,0.7155555555555555
PKZ,26.878782821291765,true,15.715998,106.426999,Saravan,1.9241666666666668
XKH,28.373950958963185,true,20.416698,104.033305,Xam Nua,3.9080555555555554
PKZ,27.878227265736207,true,14.807997,106.839001,Attapu,2.923611111111111
DIN,27.83738408898371,true,21.683304,102.099997,Phongsali,5.9688888888888885
BZV,15.916431537139928,true,-4.356,14.761999,Kinkala,1.2533333333333334
BLL,3.726193533152423,true,55.709001,9.534996,Vejle,0.4216666666666667
CKY,19.44865438090895,true,12.084003,-12.301001,Mali,7.418611111111111
CKY,18.50448771424228,true,11.439999,-11.670002,Tongue,6.474444444444444
CKY,16.59976549202006,true,11.079999,-12.401001,Pita,4.5697222222222225
CKY,16.040043269797838,true,10.656,-12.272004,Dalaba,4.01
CKY,13.91004326979784,true,10.185003,-14.042996,Boffa,1.88
OXB,17.0830050962485,true,12.480003,-13.295996,Koundara,5.3725000000000005
CKY,18.405876603131173,true,11.754,-13.212998,Gaoual,6.3758333333333335
CKY,15.612821047575617,true,10.905003,-13.042998,Telimele,3.582777777777778
CKY,13.224487714242283,true,9.430002,-13.097997,Forecariah,1.1944444444444444
ROB,19.506546787407043,true,8.686998,-8.657,Beyla,6.9525
ROB,20.06682456518482,true,8.553996,-10.151,Gueckedou,7.512777777777777
CKY,17.165321047575617,true,10.747998,-11.108996,Dabola,5.135277777777778
ABJ,16.878803584569248,true,6.977997,-5.748002,Bouafle,4.15
ROB,20.375435676295933,true,8.28,-7.684002,Touba,7.821388888888889
ABJ,15.629636917902582,true,5.839002,-5.360003,Divo,2.9008333333333334
ABJ,15.46630358456925,true,6.552,-5.019002,Toumodi,2.7375
ABJ,14.228248029013693,true,5.466699,-3.200004,Aboisso,1.4994444444444446
GUA,21.165866676866592,true,15.033303,-91.133298,Santa Cruz Del Quiche,2.5769444444444445
TIA,5.606032730594544,true,41.518998,19.797004,Kruje,0.44583333333333336
TIA,6.584088286150099,true,40.730004,19.573003,Fier,1.423888888888889
TIA,6.267421619483432,true,40.940001,19.716003,Lushnje,1.1072222222222223
TGD,7.081558391379051,true,42.033303,19.883304,Puke,2.0869444444444443
TGD,8.869058391379053,true,42.3333,20.083303,Bajram Curri,3.8744444444444444
CFU,7.604208602692517,true,39.877002,19.999999,Sarande,2.1869444444444444
KSO,10.59769964043249,true,40.333302,20.683297,Erseke,1.953888888888889
KSO,10.30019964043249,true,40.899996,20.664001,Pogradec,1.656388888888889
KSO,9.896032973765823,true,40.616676,20.766664,Korce,1.2522222222222223
TIA,6.899088286150099,true,40.709997,19.972,Berat,1.7388888888888887
KSO,12.270477418210268,true,40.516704,20.233297,Corovode,3.6266666666666665
TIA,6.890754952816765,true,40.866696,20.199997,Gramsh,1.7305555555555554
TIA,6.740754952816766,true,41.200002,20.366704,Librazhd,1.5805555555555555
CFU,8.874486380470294,true,40.283298,20.033299,Tepelene,3.457222222222222
CFU,8.526986380470294,true,40.078998,20.149003,Gjirokaster,3.1097222222222225
TIA,6.459643841705654,true,41.625999,20.016001,Burrel,1.2994444444444444
TIA,7.694366063927877,true,41.683302,20.433303,Peshkopi,2.5341666666666667
TIA,5.949366063927877,true,41.787999,19.654003,Lezhe,0.7891666666666667
TIA,5.955754952816766,true,41.783301,19.816705,Rreshen,0.7955555555555556
EVN,10.493905755388036,true,40.301667,44.359167,Ashtarak,0.4502777777777778
CRL,5.831294208867983,true,50.445999,3.939004,Mons,0.4938888888888889
MST,7.7799851454497215,true,50.964003,5.483998,Hasselt,0.35805555555555557
TBS,14.375237593497992,true,40.875556,45.149167,Ijevan,2.4033333333333333
EVN,10.596961310943591,true,39.953889,44.550556,Artashat,0.5533333333333333
EVN,11.591961310943592,true,40.358889,45.126667,Gavarr,1.5483333333333333
KVD,11.915889773844043,true,40.565556,45.816111,Gadabay,1.283611111111111
KVD,11.4839453293996,true,40.610278,46.789722,Goranboy,0.8516666666666667
KVD,11.617834218288488,true,40.992222,45.628889,Tovuz,0.9855555555555555
KVD,11.92505644051071,true,40.905278,45.556389,Agdam,1.2927777777777778
GBB,11.478236233476999,true,40.981389,47.845833,Qabala,0.29388888888888887
GBB,11.950180677921443,true,41.070833,47.458333,Oguz,0.7658333333333334
NAJ,15.250101610509232,true,39.761111,45.333333,Yeghegnadzor,4.688055555555556
HEA,18.06773068657953,true,34.983,63.1333,Qal eh-ye Now,2.817222222222222
KDH,18.26322924596114,true,31.582998,64.36,Lashkar Gah,2.2594444444444446
ZAH,21.26002767941213,true,31.112001,61.886998,Zaranj,3.7722222222222226
PZH,30.5263534162415,true,32.85,68.416705,Zareh Sharan,9.837222222222222
TJU,18.542052020437993,true,36.729999,69.540004,Taloqan,5.206111111111111
MZR,15.142750110244078,true,36.261,68.040001,Aybak,1.4069444444444446
PNH,21.33951216271191,true,11.451996,104.518999,Kampong Spoe,0.5483333333333333
PNH,23.35728994048969,true,12.711996,104.888998,Kampong Thum,2.5661111111111112
PNH,22.467567718267464,true,11.484,105.324004,Prey Veng,1.6763888888888887
REP,23.718399777979307,true,13.816701,104.966704,Phnum Tbeng Meanchey,3.2125
PKZ,28.54767171018065,true,13.523004,105.974002,Stoeng Treng,3.593055555555556
PNH,24.864234384934132,true,12.468996,106.023997,Kracheh,4.073055555555555
PXU,25.683884163804006,true,13.507002,106.981003,Lumphat,2.9066666666666667
BJA,8.257487467798807,true,36.821997,5.766004,Jijel,1.3880555555555556
LFW,14.48286317585496,true,6.615,1.715004,Lokossa,1.9583333333333333
ALG,6.13248348938695,true,36.800001,4.033333,Tizi-Ouzou,1.3422222222222222
QSF,7.786592822393993,true,36.059004,4.629996,Bordj Bou Arreridj,0.8136111111111112
QSF,8.413537266838437,true,35.700003,4.545001,M'sila,1.4405555555555556
AAE,7.959297441099528,true,36.466002,7.427997,Guelma,1.0255555555555556
CZL,8.12850663258337,true,35.849997,7.149997,Oum el Bouaghi,1.1369444444444445
SOF,7.4581286906137345,true,43.137999,24.719005,Lovec,2.062222222222222
SOF,7.460350912835956,true,43.414002,23.237002,Montana,2.0644444444444443
VAR,7.308595177182186,true,43.533999,26.535997,Razgrad,1.4802777777777778
ACH,7.4523313778721185,true,47.516697,9.766702,Bregenz,0.45444444444444443
LUX,3.2954698495470587,true,49.683303,5.8167,Arlon,0.4436111111111111
PBH,19.601369519941585,true,27.383301,89.516701,Paro,0.3647222222222222
PBH,20.79331396438603,true,27.633303,89.833303,Punakha,1.5566666666666669
HGN,38.359326101082,true,19.665,97.206004,Loikaw,14.581111111111111
PBH,20.69942507549714,true,27.433296,89.916697,Wangdue Prodrang,1.4627777777777777
BJM,17.991422856087055,true,-3.099996,30.162996,Karusi,2.621666666666667
BJM,19.142256189420387,true,-3.166704,30.516697,Cankuzo,3.7725
BJM,17.767811744975944,true,-3.931002,29.993005,Rutana,2.3980555555555556
BJM,18.129756189420387,true,-3.481002,30.243997,Ruyigi,2.76
BJM,16.224756189420386,true,-3.083301,29.366704,Bubanza,0.855
BJM,17.179756189420388,true,-2.899998,29.566702,Kayanza,1.8099999999999998
BJM,17.545589522753723,true,-2.912004,29.825002,Ngozi,2.1758333333333337
KGL,16.67080059082655,true,-2.584722,30.097222,Kirundo,1.4908333333333335
BJM,17.974200633864832,true,-4.133304,29.8,Makamba,2.604444444444445
NIM,17.397180476319782,true,13.436412,0.530443,Sebba,6.302222222222222
NIM,14.010236031875339,true,12.077001,1.796005,Diapaga,2.9152777777777774
MAQ,27.13223123865918,true,16.849998,97.616701,Pa-an,2.5525
AJL,32.541431749907915,true,22.650003,93.616705,Hakha,12.425
MDL,22.431016402055935,true,21.879999,95.961997,Sagaing,0.5697222222222221
HEH,22.24596777508468,true,20.781999,97.038001,Taunggyi,0.5527777777777777
BJM,16.3733673005315,true,-3.260997,29.611999,Muramvya,1.0036111111111112
LCA,7.572985581462854,true,34.917003,33.635998,Larnaka,0.11472222222222223
PFO,7.707351183112411,true,34.755915,32.422457,Paphos,0.35027777777777774
GLK,29.57899424946613,true,8.433297,47.3167,Laascaanood,7.617500000000001
BSA,26.58659625218384,true,10.583298,47.333305,Ceerigaabo,7.513888888888888
DAU,31.171628449400238,true,-9.109152,143.233723,Daru,0
ECN,10.115232196868323,true,35.325999,33.333004,Kyrenia,0.705
VLN,22.29729783934055,true,9.657999,-68.589999,San Carlos,1.4338888888888888
BRM,22.294964998620085,true,10.335996,-68.745996,San Felipe,1.1713888888888888
VLN,22.108408950451665,true,9.900999,-67.354002,San Juan De Los Morros,1.245
PMV,18.758294242496977,true,11.033334,-63.883332,La Asuncion,0.6302777777777778
ADE,17.36917370694676,true,13.978998,45.574003,Al Bayda,3.5186111111111114
AXK,16.027037000440497,true,14.550003,46.800001,'Ataq,0.16583333333333333
SAH,16.23139172718491,true,15.420996,45.334,Marib,2.8672222222222223
RTB,17.927170948918025,true,16.329996,-86.518998,Roatan,0.011944444444444445
FON,24.912788840653647,true,11.199996,-84.833297,San Carlos,2.042777777777778
PBM,19.60045178049429,true,5.599998,-55.199996,Onverwacht,0.6441666666666667
PBM,20.659340669383177,true,5.796999,-55.481003,Groningen,1.7030555555555555
LBD,14.646126148550616,true,39.750003,69.000004,Leninobod,1.6286111111111112
BYC,32.66496741904936,true,-22.030002,-60.609996,Mariscal Estigarribia,6.746666666666667
MGA,19.349318676603477,true,11.845998,-86.194997,Jinotepe,0.7633333333333333
ASU,22.56119969457644,true,-25.387002,-57.14,Caacupe,0.8858333333333334
MGA,20.389874232159034,true,13.091004,-86.000004,Jinotega,1.8038888888888889
MGA,19.11292978771459,true,11.969001,-86.094999,Masaya,0.5269444444444444
AJF,14.058333759701593,true,29.999997,40.133305,Sakakah,0.6369444444444444
PVE,27.779161405771156,true,9.541686,-78.971963,El Porvenir,0
JUB,28.71299888182549,true,9.233333,29.833333,Bentiu,14.148333333333333
OGZ,11.023817466618784,true,43.233003,44.783002,Nazran,0.39555555555555555
IKT,18.378440068316507,true,52.832997,104.699998,Ust' Ordynskiy,1.4716666666666667
KAN,14.22884226205309,true,11.799189,9.350335,Dutse,1.6544444444444444
YOL,17.582140932651363,true,11.748996,11.966005,Damaturu,4.669722222222222
SYQ,21.343536980707658,true,9.991998,-84.120003,Heredia,0.24222222222222223
XMS,25.81226883760297,true,-1.483002,-77.986998,Puyo,1.9480555555555557
TUA,23.78504370934879,true,0.821997,-77.732,Tulcan,0.09861111111111112
EYP,20.78936623005966,true,5.346999,-72.405999,Yopal,0.19055555555555556
FAE,8.167721680303238,true,62.237478,-6.539011,Klaksvik,1.3497222222222223
MVR,24.679140160116333,true,9.395001,16.305003,Lai,8.242222222222223
FRA,3.5323651698523455,true,49.982472,8.273219,Mainz,0.45083333333333336
DRS,4.665242965645581,true,50.662998,14.081005,Usti Nad Labem,1.0277777777777777
PED,10.237016498000942,true,50.205996,15.812002,Hradec Kralove,0.35444444444444445
VIL,29.467945645279862,true,22.679001,-12.707001,Fderik,19.83555555555556
NKC,14.82041132864444,true,17.057997,-13.908996,Aleg,4.165555555555556
NKC,13.928744661977774,true,19.746999,-14.390999,Akjoujt,3.273888888888889
EBL,12.581181021417066,true,36.8667,43.000003,Dahuk,2.1397222222222223
AMH,18.78894948398728,true,7.059996,38.476999,Awasa,4.334722222222222
BGW,14.778263772929925,true,34.193997,43.875001,Samarra,1.9361111111111111
GMB,17.23072243115247,true,8.148996,35.537005,Gore,2.5725
DZN,28.851978545305453,true,49.626,63.498997,Turgay,16.108888888888888
YES,16.80959899565191,true,30.659004,51.594004,Yasuj,0.2838888888888889
SCO,13.132256984333079,true,43.690455,51.141736,Mangyshlak,0.5738888888888888
IFN,13.54842271969778,true,32.320998,50.853997,Shar e Kord,1.6388888888888888
GOI,17.30392779217316,true,15.491997,73.818001,Panaji,0.5833333333333334
GMA,29.401794254355124,true,4.32,21.179998,Mobaye,9.080277777777779
BCV,20.608953843406397,true,17.155998,-89.061003,El Cayo,0.5972222222222222
CZH,22.20963252320635,true,18.397998,-88.388001,Corozal,0.08666666666666667
GBE,22.091330001722863,true,-24.377004,26.152003,Mochudi,0.6205555555555555
TPE,20.688026704572664,true,24.9575,121.298889,Bade,0.345
TPE,20.706360037906,true,24.943889,121.216111,Pingzhen,0.36333333333333334
TNN,22.153375895637907,true,23.45,120.333333,Taibao,1.0330555555555556
TPE,20.626360037906,true,24.988889,121.311111,Taoyuan,0.2833333333333333
TPE,20.78358226012822,true,24.916667,121.15,Yangmei,0.44055555555555553
TSA,25.26877373652871,true,24.75,121.75,Yilan,0.8350000000000001
TPE,21.013304482350442,true,24.833333,121.011944,Zhubei,0.6702777777777779
URG,28.115063841361234,true,-30.415987,-56.48602,Artigas,1.9441666666666668
URG,28.656452730250123,true,-30.730025,-57.319974,Baltasar Brum,2.4855555555555555
URG,30.06645273025012,true,-31.200022,-55.749967,Tranqueras,3.895555555555555
URG,31.130063841361235,true,-31.709965,-55.980005,Tacuarembo,4.9591666666666665
MVD,25.861787694753705,true,-32.810001,-56.51005,Paso de los Toros,3.464722222222222
RIG,27.39460237754556,true,-32.929994,-53.949999,Vergara,3.7527777777777778
PDP,28.145418177453713,true,-33.230027,-54.380025,Treinta y Tres,3.031944444444444
MVD,23.448176583642596,true,-34.470003,-56.399979,Santa Lucia,1.051111111111111
PDP,29.07069595523149,true,-33.470013,-55.120005,Jose Batlle y Ordonez,3.957222222222222
PDP,26.361251510787046,true,-34.370009,-55.230024,Minas,1.2477777777777777
PDP,25.410973733009268,true,-34.910028,-54.959989,Maldonado,0.29750000000000004
PDP,25.51958484412038,true,-34.969973,-54.94999,Punta del Este,0.40611111111111114
PDP,26.44708484412038,true,-34.199994,-54.750002,Aigua,1.333611111111111
PDP,27.026807066342602,true,-34.669991,-54.169986,La Paloma,1.9133333333333333
MSP,13.570552375197158,true,44.290486,-93.268013,Faribault,0.8305555555555556
MSP,14.332219041863825,true,44.163621,-93.999157,Mankato,1.5922222222222222
RST,15.943633235410033,true,43.647787,-93.368704,Albert Lea,0.9994444444444445
STC,16.99135642126548,true,45.121883,-95.043305,Willmar,1.3594444444444445
BRD,15.234504976104638,true,46.358009,-94.20085,Brainerd,0.18944444444444444
TVF,18.833406306490996,true,47.773762,-96.607731,Crookston,1.2083333333333333
BIL,17.576990352603655,true,45.731768,-107.612486,Hardin,0.8377777777777777
GDV,19.584382656363864,true,47.108583,-104.710493,Glendive,0.3091666666666667
BTM,21.790320425645707,true,45.215675,-112.683985,Dillon,1.4377777777777778
FCA,18.89009901837311,true,47.688005,-114.156686,Polson,1.4066666666666667
GFK,17.369755924077296,true,48.112217,-98.859687,Devils Lake,1.8694444444444445
TWF,21.011672663953263,true,42.535813,-113.791876,Burley,1.1508333333333334
PUW,20.654989311539005,true,47.47422,-115.926888,Wallace,3.152222222222222
PHX,16.610136904542387,true,33.581941,-112.195824,Glendale,0.5044444444444445
SEA,16.36455752316121,true,46.716411,-122.952971,Centralia,1.5305555555555554
PSC,17.45704301033299,true,46.211377,-119.136098,Kennewick,0.16305555555555556
TUS,20.673495019636785,true,32.833821,-109.70688,Safford,2.463611111111111
AZA,21.17473454905316,true,32.879374,-111.756626,Casa Grande,1.0341666666666667
AZA,20.51584566016427,true,33.423915,-111.736084,Mesa,0.37527777777777777
SAN,16.888553992576746,true,32.671945,-117.098005,National City,0.21027777777777779
OAK,20.99659779977046,true,37.873901,-122.271152,Berkeley,0.3788888888888889
STS,22.689189192567166,true,39.307767,-123.799431,Mendocino,2.218055555555556
SBP,19.538666808160364,true,35.626597,-120.689982,Paso Robles,0.6686111111111112
SFO,16.56271224765485,true,37.556918,-122.313062,San Mateo,0.20416666666666666
OAK,21.33409779977046,true,38.111949,-122.258052,Vallejo,0.7163888888888889
ONT,19.030682105694428,true,33.941945,-117.398039,Riverside,0.5111111111111112
EGE,17.46562833824497,true,39.54659,-107.3247,Glenwood Springs,0.6480555555555555
SVC,19.705422310728004,true,32.261092,-107.755785,Deming,0.9827777777777779
MMH,22.3161622204625,true,38.06699,-117.228979,Tonopah,3.0316666666666667
SVC,21.083755644061338,true,33.133596,-107.252896,Truth or Consequences,2.361111111111111
SAF,18.79066590430496,true,35.597012,-105.222503,Las Vegas,1.4819444444444445
FMN,17.421787451777373,true,36.754151,-108.186094,Farmington,0.15083333333333335
EUG,19.857673083157252,true,44.051948,-122.978034,Springfield,0.41583333333333333
BOI,18.92921870280046,true,44.026627,-116.961889,Ontario,1.135
PDT,20.732440632545575,true,45.324687,-118.086601,La Grande,1.0866666666666667
PDX,18.86346988444816,true,45.455247,-123.842503,Tillamook,1.7047222222222222
CDC,21.823547194034948,true,38.772477,-112.083298,Richfield,1.8366666666666667
COD,18.025831976561662,true,44.758675,-108.758437,Powell,0.4811111111111111
RIW,18.147441405245548,true,42.833004,-108.732599,Lander,0.8594444444444445
JBR,18.2293763481961,true,36.057087,-90.502884,Paragould,0.43083333333333335
CID,15.644122151090825,true,41.661086,-91.529979,Iowa City,0.5430555555555556
IRK,19.22994186835573,true,41.012883,-92.414809,Ottumwa,1.5747222222222221
SUX,17.971461589419924,true,43.145285,-95.147175,Spencer,2.2288888888888887
ICT,17.11190585000705,true,38.065492,-97.923491,Hutchinson,0.9613888888888888
FOE,16.43487574499258,true,38.959752,-95.25523,Lawrence,0.63
MCI,16.02192558575769,true,39.113581,-94.630146,Kansas City,0.3675
GCK,18.076513981146764,true,37.975213,-100.864087,Garden City,0.2752777777777778
MHK,16.17516868018427,true,39.194028,-96.592435,Manhattan,0.25833333333333336
MCK,19.34024621243017,true,39.348488,-101.711037,Goodland,2.2625
DDC,19.59265445290006,true,38.87937,-99.322191,Hays,2.3144444444444447
IRK,17.849664090577953,true,40.193682,-92.582809,Kirksville,0.19444444444444445
MCI,16.284703363535467,true,39.091114,-94.415281,Independence,0.6302777777777778
EAR,17.445246920256945,true,40.700706,-99.081146,Kearney,0.13333333333333333
GRI,18.36246168291565,true,40.922268,-98.357986,Grand Island,0.13944444444444445
AIA,17.14970722276551,true,42.101395,-102.870191,Alliance,0.1713888888888889
TUL,16.97572813512038,true,36.7472,-95.980586,Bartlesville,0.8305555555555556
LAW,19.72831648782998,true,34.181078,-97.129405,Ardmore,2.637222222222222
FSM,18.819024789331625,true,34.932996,-95.765974,McAlester,1.9958333333333333
RAP,17.148717167409114,true,44.350845,-103.76577,Lead,1.0994444444444444
LCH,17.51972113740125,true,30.226384,-93.217189,Lake Charles,0.2363888888888889
MSY,17.225870091902525,true,30.27496,-89.781094,Slidell,0.8241666666666667
MSY,16.66003675856919,true,29.983866,-90.152777,Metairie,0.25833333333333336
LFT,17.10038459332097,true,30.003581,-91.818308,New Iberia,0.4791666666666667
CLL,17.35054244855402,true,30.674186,-96.369684,Bryan,0.20972222222222223
MFE,17.850584747932757,true,26.203038,-98.229725,McAllen,0.058055555555555555
GGG,17.535015614498388,true,32.500534,-94.740274,Longview,0.44416666666666665
AUS,15.866092252080707,true,29.883071,-97.941113,San Marcos,0.7077777777777778
HRL,17.885465582113493,true,26.19756,-97.690198,Harlingen,0.15083333333333335
CRP,18.289672839936248,true,27.750462,-98.070484,Alice,0.8075
SAT,17.865160759562492,true,29.697811,-98.126321,New Braunfels,0.53
ABI,18.926945734518043,true,31.707895,-98.982315,Brownwood,1.7891666666666666
CNM,22.829538499185006,true,31.042484,-104.832242,Van Horn,2.8433333333333333
DFW,15.853613562556065,true,32.351525,-97.39249,Cleburne,1.1380555555555556
MAF,21.40771862340769,true,30.360717,-103.665001,Alpine,3.8652777777777776
MAF,18.649385290074356,true,32.243186,-101.475186,Big Spring,1.1069444444444445
SPS,18.134712455186346,true,34.151054,-99.290384,Vernon,1.1166666666666667
AMA,23.128272289813168,true,34.424887,-100.21392,Childress,2.085
AMA,22.158827845368723,true,34.821917,-102.398592,Hereford,1.1155555555555556
HOU,21.695514811245847,true,29.410878,-94.962767,Texas City,0.6930555555555556
AMA,22.673272289813166,true,36.060808,-102.518611,Dalhart,1.63
HOU,21.363014811245847,true,29.660863,-95.147743,Pasadena,0.3605555555555556
HOU,21.68384814457918,true,29.755844,-94.967728,Baytown,0.6813888888888889
DFW,15.103891340333844,true,32.684761,-97.020238,Arlington,0.38833333333333336
AUC,21.454515700789525,true,7.239983,-70.739982,Guasdualito,0.4341666666666667
BNS,23.477547028428383,true,8.599978,-70.250012,Barinas,0.10083333333333333
VLV,23.58163885866528,true,9.31996,-70.620015,Valera,0.20388888888888887
MAR,22.020220408518046,true,10.429995,-71.44999,Cabimas,0.7075
BRM,22.452464998620087,true,10.189984,-70.079997,Carora,1.328888888888889
BNS,24.49393591731727,true,9.049976,-69.750017,Guanare,1.1172222222222221
HVN,14.806996749504561,true,41.355523,-72.100028,New London,0.898611111111111
HPN,15.737858942240415,true,41.053346,-73.539191,Stamford,0.3763888888888889
HVN,14.60477452728234,true,41.550008,-73.050022,Waterbury,0.6963888888888888
EWB,15.046086849465715,true,41.656125,-70.944698,New Bedford,0.048888888888888885
BDL,13.810391409690668,true,42.120025,-72.579999,Springfield,0.44611111111111107
BOS,11.156527906509991,true,42.522499,-70.883092,Salem,0.41833333333333333
ALB,14.15373025228113,true,42.448196,-73.259828,Pittsfield,1.0272222222222223
BTV,16.66603772379789,true,44.259972,-72.575813,Montpelier,0.7416666666666667
MSL,15.991169266473719,true,34.799696,-87.677243,Florence,0.18861111111111112
MIA,14.521119956840119,true,25.468302,-80.477786,Homestead,0.6655555555555555
SFB,17.882369718127723,true,28.78996,-81.279985,Sanford,0.14027777777777778
MIA,14.22111995684012,true,25.80992,-80.131781,Miami Beach,0.3655555555555556
FLL,16.631492162156285,true,26.270837,-80.270822,Coral Springs,0.5694444444444444
PGD,18.364734709093256,true,27.000043,-82.105697,Port Charlotte,0.30666666666666664
TPA,14.785007002068122,true,28.478945,-82.547711,Spring Hill,0.9705555555555556
DAB,16.45702132798574,true,29.538002,-81.223296,Palm Coast,0.6511111111111112
UST,21.967190785563645,true,29.647685,-81.651306,Palatka,0.7741666666666667
SFB,18.797925273683276,true,28.810501,-81.883333,Leesburg,1.0558333333333334
GNV,16.657894465774476,true,30.189719,-82.639747,Lake City,0.9258333333333333
ECP,16.422496917385896,true,30.15861,-85.655273,Panama City,0.5497222222222222
CHA,17.81351759126302,true,34.769724,-84.970302,Dalton,0.6061111111111112
ATL,13.89217835175672,true,33.955613,-84.543248,Marietta,0.6188888888888889
BQK,17.18421052570151,true,31.213817,-82.354906,Waycross,1.2716666666666667
MEI,16.114993794485788,true,32.364186,-88.703614,Meridian,0.1275
PIB,16.54039405652329,true,31.697379,-89.139273,Laurel,0.40138888888888885
GSP,15.326909831685665,true,34.949429,-81.932271,Spartanburg,0.4586111111111111
CAE,17.616749122601547,true,33.496804,-80.862233,Orangeburg,0.7283333333333334
MLI,15.922348475751548,true,40.947771,-90.371084,Galesburg,0.9730555555555556
MDW,17.430437448361666,true,41.529983,-88.106674,Joliet,0.7441666666666666
CGI,17.78053344722503,true,37.305822,-89.518087,Cape Girardeau,0.21861111111111112
RFD,22.793173573810684,true,42.269705,-89.06969,Rockford,0.29916666666666664
MLI,15.117626253529325,true,41.493396,-90.534614,Rock Island,0.16833333333333333
ORD,13.00831125909941,true,42.048349,-87.699955,Evanston,0.43222222222222223
DAY,17.21950929818781,true,39.828898,-84.890281,Richmond,0.7511111111111112
ORD,13.201366814654964,true,42.039461,-88.289919,Elgin,0.6252777777777777
IND,16.012416112427687,true,40.417209,-86.878248,Lafayette,1.318888888888889
CMI,17.019545924017468,true,39.466647,-87.413874,Terre Haute,2.080277777777778
SBN,14.807143286841622,true,41.683307,-86.250017,South Bend,0.31027777777777776
FWA,15.32421998783325,true,40.558337,-85.659175,Marion,0.9036111111111111
SDF,17.196476895670394,true,38.310877,-85.821284,New Albany,0.34694444444444444
SBN,15.160198842397179,true,41.682945,-85.968794,Elkhart,0.6633333333333333
OWB,19.562018535797684,true,36.865487,-87.488624,Hopkinsville,1.8033333333333335
LEX,18.33814084451616,true,37.128882,-84.083354,London,1.4880555555555555
PGV,16.025131263339716,true,35.937999,-77.790766,Rocky Mount,0.7947222222222222
OWB,18.915074091353237,true,37.332746,-87.502215,Madisonville,1.156388888888889
RDU,12.70069143164845,true,35.999959,-78.92,Durham,0.3347222222222222
CLT,13.607221827406617,true,35.67078,-80.474478,Salisbury,0.9197222222222222
FAY,17.18617455880421,true,34.6272,-79.011906,Lumberton,0.6133333333333333
CMH,15.355443347372516,true,39.940287,-82.013325,Zanesville,1.0227777777777778
CMH,15.50127668070585,true,40.758325,-82.515542,Mansfield,1.168611111111111
TOL,15.714067411981945,true,41.374747,-83.65139,Bowling Green,0.5672222222222222
DAY,17.016175964854476,true,39.920004,-83.799986,Springfield,0.5477777777777778
LCK,22.41077418810412,true,39.719215,-82.605304,Lancaster,0.6072222222222222
TRI,15.401235903437462,true,36.313325,-82.353614,Johnson City,0.3927777777777778
TRI,15.331235903437463,true,36.548323,-82.561948,Kingsport,0.3227777777777778
BNA,16.283118063078373,true,35.614995,-87.035267,Columbia,1.0475
SHD,14.463210962613681,true,38.449422,-78.869176,Harrisonburg,0.3777777777777778
ROA,15.11836351642306,true,37.229419,-80.414198,Blacksburg,0.8025
ATW,16.533174147008012,true,43.750829,-87.714424,Sheboygan,1.6630555555555555
MKE,15.18693488633999,true,43.01165,-88.231369,Waukesha,0.5488888888888889
LSE,15.287872406495659,true,43.801369,-91.239429,La Crosse,0.22805555555555557
EAU,15.562630232591731,true,44.811359,-91.498353,Eau Claire,0.26666666666666666
LSE,15.850650184273437,true,43.985053,-90.503892,Tomah,0.7908333333333334
RFD,23.43345135158846,true,42.682626,-89.021579,Janesville,0.9394444444444444
ATW,15.081785258119123,true,44.268679,-88.400506,Appleton,0.21166666666666664
PKB,16.734113775438956,true,39.266659,-81.561647,Parkersburg,0.31333333333333335
LWB,14.664697896484899,true,37.79388,-80.303481,White Sulphur Springs,0.35055555555555556
CKB,14.439408608491492,true,39.283273,-80.336916,Clarksburg,0.1938888888888889
ILG,16.137925288320037,true,39.158087,-75.524703,Dover,0.8788888888888889
DCA,14.459286941329758,true,38.603056,-76.938932,St. Charles,0.6522222222222223
BWI,12.234651178416275,true,38.97833,-76.492499,Annapolis,0.5069444444444444
HGR,14.187057531981806,true,39.641649,-77.72028,Hagerstown,0.1986111111111111
ALB,13.63511914117002,true,43.082963,-73.785016,Saratoga Springs,0.5086111111111111
TEB,15.774947494468037,true,40.919995,-74.170005,Paterson,0.22888888888888886
SWF,14.485184669582807,true,41.700231,-73.921416,Poughkeepsie,0.6547222222222222
PBG,13.511717190802907,true,44.694984,-73.457982,Plattsburg,0.23583333333333334
AOO,14.687278224493783,true,40.518598,-78.394967,Altoona,0.5663888888888889
IPT,13.968466622551619,true,41.241086,-77.001383,Williamsport,0.13305555555555557
LNS,14.310896128022009,true,40.037774,-76.305766,Lancaster,0.19527777777777777
BLA,20.48003851523156,true,10.169959,-64.680016,Puerto la Cruz,0.15305555555555556
ABE,13.852687145030913,true,40.599988,-75.500028,Allentown,0.21694444444444447
CCS,21.207224345262702,true,10.41997,-67.020028,Los Teques,0.5258333333333334
SOM,24.55471169719581,true,9.440004,-64.460004,Anaco,1.2705555555555557
BLA,23.317816293009336,true,9.209992,-66.019986,Valle de la Pascua,2.9908333333333332
CCS,22.064168789707146,true,10.119988,-66.779991,Ocumare del Tuy,1.3827777777777779
POS,14.572149304760218,true,10.280462,-61.459377,San Fernando,0.7405555555555555
PBM,20.326007336049845,true,5.020015,-55.169951,Brownsweg,1.3697222222222223
PBM,21.437118447160955,true,5.630004,-54.409997,Moengo,2.4808333333333334
AUG,13.577550511809692,true,44.551892,-69.645785,Waterville,0.4419444444444444
YFC,13.910805338163957,true,45.165989,-67.242392,Calais,1.8294444444444444
PQI,14.647055851004822,true,46.125517,-67.83972,Houlton,1.0172222222222222
SBN,15.247698842397178,true,42.11664,-86.454191,Benton Harbor,0.7508333333333332
MBS,14.710920682042875,true,43.594457,-83.888895,Bay City,0.36916666666666664
IMT,15.579238465981748,true,45.82246,-88.064093,Iron Mountain,0.15194444444444447
RHI,17.30262241504928,true,46.455806,-90.159391,Ironwood,2.053611111111111
AGP,5.473963310295866,true,36.51662,-4.88333,Marbella,0.6683333333333333
GIB,5.254447646318724,true,36.126712,-5.46653,Algeciras,0.33
GRX,6.534331822465956,true,38.08332,-3.633355,Linares,1.8397222222222223
LEN,7.185941058759997,true,42.579971,-5.570007,Leon,0.17194444444444443
HTY,11.4258214518681,true,35.539987,35.779976,Al Ladhiqiyah,1.8666666666666667
BCN,4.59398604800269,true,41.539957,2.450021,Mataro,0.6722222222222223
GZT,12.453500848246998,true,36.588786,37.044085,Izaz,0.8308333333333333
GZT,14.298778626024777,true,36.526645,37.956329,Manbij,2.676111111111111
HTY,11.100821451868098,true,35.929705,36.631655,Idlib,1.5416666666666667
GZT,15.116278626024776,true,35.836661,38.548076,Madinat ath Thawrah,3.4936111111111114
MQM,12.908328416660975,true,37.030025,41.229979,Al Qamishli,0.9344444444444445
MQM,14.014717305549864,true,36.483289,40.750009,Al Hasakah,2.0408333333333335
ACH,7.901498044538785,true,46.85002,9.50003,Chur,0.9036111111111111
BEY,9.566982840981916,true,33.583336,36.39999,Douma,1.7691666666666668
HYG,20.8416467010752,true,55.21398,-132.800638,Hydaburg,0.06555555555555555
SDP,24.291890622485422,true,55.339709,-160.497191,Sand Point,0.09083333333333334
PTH,25.909894763030614,true,56.949094,-158.626892,Port Heiden,0.05472222222222222
KPV,26.130556880030582,true,55.918614,-159.151149,Perryville,0.0775
ATK,26.46240790026941,true,70.469379,-157.395778,Atqasuk,0.02333333333333333
MYU,26.368038522163484,true,60.388647,-166.189937,Mekoryuk,0.18166666666666667
DLG,23.678864870842148,true,59.05656,-158.480312,Dillingham,0.09027777777777778
GNU,26.103991247448768,true,59.120993,-161.58713,Goodnews Bay,0.019166666666666665
TNK,28.14207781990191,true,60.585487,-165.255789,Tununak,0.05
MOU,26.01569403533274,true,62.085524,-163.729009,Mountain Village,0.09055555555555556
EMK,30.180143246378158,true,62.776981,-164.522992,Emmonak,0.0725
TLT,25.873633634221566,true,61.004143,-159.940481,Nyac,0
TLA,26.413959979968638,true,65.263599,-166.360786,Teller,0.11083333333333334
KAL,25.86741972389134,true,64.327196,-158.721899,Kaltag,0.05083333333333333
ANC,23.245903391318155,true,62.323779,-150.109427,Talkeetna,2.5358333333333336
OBU,26.606332364170203,true,66.907246,-156.880977,Kobuk,0.015277777777777777
WLK,26.374922777105052,true,66.603879,-160.009391,Selawik,0
KYU,23.741260484108718,true,64.880289,-157.70085,Koyukuk,0.0275
ANC,22.281181169095934,true,60.784157,-148.67768,Whittier,1.5711111111111111
ANC,22.959792280207044,true,62.079685,-150.072762,Montana,2.249722222222222
NIB,25.401849016693188,true,63.882831,-152.312187,Lake Minchumina,0.0005555555555555556
HKB,24.15751932613557,true,63.391594,-148.95079,Cantwell,1.0238888888888888
VDZ,26.296332528804033,true,62.271353,-145.382196,Gulkana,3.251111111111111
IRC,36.832128345730744,true,64.787995,-141.199997,Eagle,13.548055555555555
AET,23.489293318547528,true,66.565483,-152.6455,Allakaket,0.06722222222222222
TAL,23.299739233189626,true,65.171873,-152.07879,Tanana,0.025833333333333333
BLE,6.59868675471668,true,60.483322,15.416671,Borllnge,0.23444444444444443
ODS,10.169862097477042,true,46.967739,31.984342,Mykolayiv,2.253333333333333
KBP,7.446366531852203,true,51.50493,31.301541,Chernihiv,1.8150000000000002
VIN,15.02885222502871,true,49.424928,27.001545,Khmelnytskyy,1.7413888888888889
LWO,8.216701807470535,true,49.344364,23.499382,Drohobych,1.353888888888889
UDJ,8.700747425766497,true,48.629989,22.250001,Uzhgorod,0.08555555555555557
VIN,15.434407780584266,true,48.754297,30.21091,Uman,2.1469444444444443
KBP,5.995810976296648,true,50.49432,30.780901,Brovary,0.36444444444444446
IEV,6.687313848426423,true,49.774312,30.130915,Bila Tserkva,1.1094444444444445
ODS,8.75652876414371,true,46.300002,30.666593,Illichivsk,0.84
KBP,8.792199865185538,true,51.242388,33.209022,Konotop,3.1608333333333336
DNK,10.932405743920839,true,47.928326,33.344982,Kryvyy Rih,2.673888888888889
DOK,9.148445126206552,true,48.029664,37.974622,Makiyivka,0.5880555555555556
DOK,9.264000681762107,true,48.299647,38.054669,Horlivka,0.7036111111111112
DOK,9.812889570650995,true,48.719363,37.534391,Kramatorsk,1.2525000000000002
DOK,11.806778459539885,true,46.756822,36.78684,Berdyansk,3.2463888888888888
RIY,14.484461278312647,true,14.759317,49.609158,Ash Shihr,0.4052777777777778
SHJ,15.712629799763514,true,25.565273,55.553343,Umm al Qaywayn,0.5422222222222222
SHJ,15.377074244207959,true,25.371383,55.406478,Sharjah,0.20666666666666667
BJB,23.177042438192387,true,38.97554,56.277795,Gyzlarbat,6.6241666666666665
NCU,12.910118731901267,true,42.316653,59.166662,Koneurgench,1.1422222222222222
GYD,29.72021957490373,true,39.436155,53.122591,Celeken,21.05972222222222
NCU,12.187896509679046,true,42.40471,59.451658,Khujayli,0.42
SKD,13.662126617460384,true,39.400707,67.26069,Urgut,0.8327777777777778
DYU,16.7050304464491,true,38.277158,67.887163,Denow,1.6191666666666669
SKD,14.024348839682606,true,39.900703,66.260751,Kattaqorgon,1.195
DYU,16.7325304464491,true,37.837314,68.771347,Qurghonteppa,1.6466666666666667
LBD,13.93807059299506,true,40.292152,70.427163,Konibodom,0.9205555555555556
LBD,15.234459481883949,true,40.495731,68.790726,Guliston,2.2169444444444446
TAS,11.723615249153756,true,41.550731,69.680749,Iskandar,0.9674999999999999
TAS,11.461393026931534,true,41.454975,69.559981,Chirchiq,0.7052777777777778
TGU,19.96419081318942,true,13.529987,-87.489967,Nacaome,1.6233333333333335
SAP,20.8046513911342,true,14.769989,-88.779992,Santa Rosa de Copan,2.6213888888888888
BVB,27.807476049756204,true,3.38996,-59.80003,Lethem,1.8977777777777776
OVD,4.138080425955096,true,43.530016,-5.67,Gijon,0.5025
GLA,3.295775728201251,true,55.93329,-4.750031,Greenock,0.3766666666666667
NCL,3.1434513074324,true,54.920019,-1.38003,Sunderland,0.4772222222222222
BRS,5.085106962829021,true,51.449998,-2.583315,Bristol,0.2558333333333333
CWL,5.885522415055457,true,51.629987,-3.950002,Swansea,0.9772222222222222
NCL,3.837617974099067,true,54.879995,-2.929987,Carlisle,1.1713888888888888
BJV,8.202035694654894,true,37.849975,27.850021,Aydin,1.6866666666666668
ISE,9.304598578017668,true,37.76998,30.52996,Isparta,0.5022222222222222
KZR,9.350203325822417,true,39.420009,29.929997,Kutahya,0.7747222222222222
BJV,7.5859245835437825,true,37.21637,28.363891,Mugla,1.0705555555555555
EZS,11.852523578901504,true,38.679976,39.229998,Elazig,0.1622222222222222
KCM,11.721732480793216,true,37.60999,36.945021,Kahramanmaras,0.23027777777777778
ADA,10.237780133739806,true,36.799988,34.619995,Icel,0.8661111111111112
MZH,10.09832586942558,true,40.519993,34.950001,Corum,0.9813888888888889
TZX,12.596928253539838,true,41.020841,40.521857,Rize,0.9433333333333334
MSR,12.954688177647101,true,38.506576,42.281595,Tatvan,0.9433333333333334
CJJ,19.942670185453213,true,36.935251,127.689715,Eumseong,0.6661111111111111
CJJ,19.49711462989766,true,36.643899,127.501199,Cheongju,0.22055555555555553
WJU,22.439594715398925,true,37.355148,127.939622,Wonju,0.19749999999999998
WJU,23.162928048732258,true,37.874702,127.734156,Chuncheon,0.9208333333333333
GMP,19.684849485051302,true,37.348068,126.859533,Ansan,0.5652777777777778
KPO,22.14620812619136,true,35.842759,129.211689,Gyeongju,0.5397222222222222
PUS,20.27222068838582,true,35.219102,128.583562,Changwon,0.6722222222222223
SEN,5.167017201658922,true,51.550018,0.719997,Southend-on-Sea,0.1311111111111111
LBA,2.6868611703896073,true,53.800035,-1.749981,Bradford,0.23055555555555557
DSA,5.957345718097281,true,53.366677,-1.499997,Sheffield,0.6741666666666667
ESB,10.166543100428834,true,39.584159,32.147226,Polatli,1.421111111111111
ONQ,9.813737609929106,true,41.200003,32.600015,Karabuk,1.3038888888888889
MQM,12.808050638883197,true,37.074984,41.218352,Nusaybin,0.8341666666666666
BUD,5.373593725763582,true,46.900043,19.700027,Kecskemet,0.8994444444444445
VAN,15.50136196814811,true,37.574436,43.740834,Hakkari,3.2427777777777775
GRZ,7.574742528132403,true,47.225346,16.628742,Szombathely,1.49
BUD,5.490260392430248,true,47.194676,18.408065,Szekesfehervar,1.0161111111111112
BRN,4.028298143035425,true,47.16659,7.250038,Biel,0.7486111111111111
LIR,20.810733866560746,true,11.249997,-85.860041,San Juan del Sur,1.9913888888888889
CND,10.429063570617641,true,45.199346,28.796681,Tulcea,1.6175
CRA,7.130463356778767,true,44.645891,22.665893,Drobeta-Turnu Severin,1.8533333333333333
OMR,8.275259528770091,true,47.049982,21.919995,Oradea,0.06638888888888889
OTP,7.2253205274267245,true,45.156506,26.806519,Buzau,1.7241666666666666
IAS,7.778320505596586,true,47.637698,26.259317,Suceava,2.326111111111111
CND,11.358230237284308,true,45.455893,28.045874,Galati,2.546666666666667
OTP,8.203653860760058,true,45.696551,27.186547,Focsani,2.7025
CUZ,30.98172535475149,true,-13.304215,-72.116616,Urubamba,0.7352777777777778
CUZ,33.70200313252927,true,-14.46001,-72.080004,Santo Tomas,3.4555555555555557
JUL,32.38474788354568,true,-15.470026,-69.429985,Putina,1.7094444444444443
ATA,31.81112336170791,true,-9.440006,-78.209991,Casma,2.037777777777778
PCL,27.04425589918925,true,-8.932182,-74.705218,Tournavista,1.3997222222222223
TPP,25.879219445942795,true,-6.430009,-76.520017,Lamas,0.3591666666666667
TRU,31.335548770335603,true,-7.899997,-78.569995,Otuzco,1.2497222222222222
CJA,32.559867392392526,true,-7.810028,-78.049949,Huamachuco,2.3508333333333336
IQT,24.381115987167167,true,-4.57002,-73.780029,Nauta,1.6191666666666669
ANS,33.259283821367355,true,-14.699996,-74.129982,Puquio,3.241111111111111
LIM,28.0240939316985,true,-11.930035,-76.710005,Chosica,0.7541666666666667
LIM,29.8040939316985,true,-11.520035,-75.940001,La Oroya,2.5341666666666667
LIM,30.400760598365167,true,-11.410015,-75.729988,Tarma,3.1308333333333334
AYP,35.59406298601653,true,-11.259999,-74.690025,Satipo,5.757499999999999
LIM,29.21131615392072,true,-11.060011,-77.599977,Huaura,1.9413888888888888
BYC,30.497745196827136,true,-20.51995,-62.209986,General Eugenio Alejandrino Garay,4.579444444444444
LIM,29.19381615392072,true,-11.110034,-77.61995,Huacho,1.923888888888889
ASU,22.068421916798663,true,-25.090007,-57.529987,Villa Hayes,0.39305555555555555
ASU,29.355921916798664,true,-23.050287,-59.849949,Fortin Falcon,7.680555555555555
ASU,22.603144139020884,true,-25.049958,-57.089988,Arroyos y Esteros,0.9277777777777777
BYO,37.65486407303809,true,-22.640028,-57.789997,Puerto Pinasco,14.188611111111111
ASU,25.995366361243107,true,-23.430005,-58.859984,Pozo Colorado,4.319999999999999
ASU,26.87258858346533,true,-24.089965,-57.079989,San Pedro,5.197222222222222
ASU,21.943977472354216,true,-25.340018,-57.52004,San Lorenzo,0.26861111111111113
ASU,22.30842191679866,true,-25.409988,-57.279977,Ypacarai,0.6330555555555556
FMA,30.413289071484304,true,-26.679988,-57.150011,San Juan Bautista,4.261666666666667
ASU,22.932033027909775,true,-25.620001,-57.16001,Paraguari,1.2566666666666668
IGR,28.15679392218929,true,-26.020028,-54.769949,Nacunday,1.8
ASU,23.833144139020884,true,-25.449985,-56.439951,Coronel Oviedo,2.157777777777778
PSS,30.250210145225164,true,-26.200017,-56.380006,Caazapa,4.260833333333333
AGT,27.19590344642245,true,-23.910028,-55.459985,Ype Jhu,5.954166666666667
PSS,26.35715458966961,true,-27.347185,-55.873919,Encarnacion,0.36777777777777776
PSS,27.15076570078072,true,-27.170035,-56.25004,Coronel Bogado,1.161388888888889
MGA,20.41515200993681,true,13.089988,-86.359985,Esteli,1.8291666666666666
MGA,19.705707565492368,true,12.469974,-85.660002,Boaco,1.1197222222222223
MGA,20.33126312104792,true,12.109996,-85.379967,Juigalpa,1.7452777777777777
OPO,4.934184922766803,true,41.554995,-8.421331,Braga,0.7566666666666666
OPO,6.980296033877913,true,40.283341,-7.499992,Covilha,2.8027777777777776
YNB,11.569470240621014,true,24.094277,38.049295,Yanbu al Bahr,0.12527777777777777
AJF,13.861111537479372,true,29.815298,39.866393,Dawmat al Jandal,0.43972222222222224
BHH,12.680245619530002,true,20.008687,42.598681,Qal at Bishah,0.09194444444444444
TIF,12.576561468806007,true,21.262228,40.382279,At Taif,0.4825
BDU,8.414914567019327,true,69.240617,18.008606,Finnsnes,0.6772222222222222
EIN,2.8497875914020083,true,51.429973,5.500015,Eindhoven,0.18555555555555556
OSL,5.51278938942929,true,60.800021,10.700008,Gjpvik,1.5174999999999998
RVK,6.867993968033975,true,64.868016,11.2053,Rorvik,0.1388888888888889
BTS,4.74347871574057,true,48.366594,17.6,Trnava,0.5569444444444444
TAY,11.430299518200247,true,56.500025,27.316565,Rezekne,3.957777777777778
EAM,13.700761003421158,true,17.50654,44.131559,Najran,0.6016666666666667
RIX,6.589370477210081,true,55.938639,23.325026,Siauliai,1.786388888888889
DWD,15.266753586795097,true,24.07371,45.280636,Al Quwayiyah,2.6416666666666666
RUH,13.113676324737671,true,23.489456,46.75636,Al Hillah,2.8847222222222224
HOF,13.044028919121908,true,25.429054,49.565904,Al Mubarraz,0.34361111111111114
DMM,12.914104209598385,true,26.519633,50.01151,Al-Qatif,0.5508333333333333
DMM,13.054659765153941,true,26.29143,50.158323,Az Zahran,0.6913888888888889
SKT,14.776423284354777,true,32.520016,74.560038,Sialkote,0.3963888888888889
LHE,13.483149436767983,true,31.719988,73.989995,Sheikhu Pura,0.9686111111111111
SKT,15.124201062132554,true,32.579987,74.080015,Gujrat,0.7441666666666666
LYP,18.051856176602854,true,30.671731,73.111806,Sahiwal,1.9666666666666666
LYP,16.8213006210473,true,31.719988,72.979979,Chiniot,0.736111111111111
RYK,15.507550731273724,true,28.420241,70.295182,Rahim Yar Khan,0.12611111111111112
ALA,17.53734433942166,true,42.651336,77.081073,Cholpon Ata,6.176944444444445
KHG,23.082988929796173,true,41.426346,75.991062,Naryn,4.9325
OSS,14.739959051975251,true,41.030711,73.205754,Kok Yangak,1.4691666666666667
ISB,14.135877966385035,true,34.341791,73.196814,Mansehra,2.036388888888889
ISB,13.781433521940592,true,34.149503,73.199501,Abbottabad,1.6819444444444445
KTM,16.67007468849734,true,27.666617,85.333334,Lalitpur,0.10361111111111111
KTM,18.12646357738623,true,27.416684,85.033352,Hetauda,1.5599999999999998
PAC,27.536795334803557,true,8.509983,-80.359989,Penonome,1.91
PAC,29.01151755702578,true,7.970016,-80.420037,Chitre,3.3847222222222224
JQE,28.02011867657349,true,7.518958,-78.166015,Jaque,0.021111111111111112
KWI,10.258804217230013,true,29.076945,48.083773,Al Ahmadi,0.4741666666666667
KWI,10.52408199500779,true,29.337472,47.658062,Al Jahra,0.7394444444444445
BOC,23.218149972353782,true,9.33535,-82.247471,Bocas del Toro,0.08916666666666666
BOC,24.51342775013156,true,9.300012,-82.399968,Almirante,1.3844444444444444
KRR,10.846284404497107,true,44.609976,40.120021,Maykop,1.8786111111111112
OGZ,12.220484133285451,true,43.754318,44.65437,Mozdok,1.5922222222222222
MRV,11.013005449658781,true,44.1599,43.469946,Georgievsk,0.7911111111111111
MRV,10.663561005214337,true,44.079957,43.090021,Pyatigorsk,0.44166666666666665
MRV,11.102449894103227,true,43.909967,42.720017,Kislovodsk,0.8805555555555556
STW,11.293317218164509,true,44.620053,41.950039,Nevinnomyssk,1.1472222222222221
WAA,26.45084531300959,true,66.950008,-171.816603,Enurmino,0.008055555555555555
WAA,26.442789757454037,true,65.583269,-171.024998,Lavrentiya,0
CYX,21.685675405404186,true,69.42444,161.481143,Mikhalkino,1.421111111111111
KGD,7.997017431484789,true,54.631638,21.810854,Chernyakhovsk,1.5202777777777778
MMK,9.55082525687193,true,69.073056,33.423066,Severomorsk,0.8725
MMK,9.851658590205263,true,69.205219,33.450247,Polyarnyy,1.1733333333333333
TAY,11.169188407089136,true,59.111597,28.074658,Slantsy,3.6966666666666668
LED,6.06748063599917,true,59.730009,30.650005,Kolpino,0.5586111111111111
KBP,9.684144309629982,true,52.534815,31.944861,Novozybkov,4.052777777777778
URS,13.682964527750173,true,53.589144,34.339185,Dyatkovo,4.8052777777777775
IAR,10.952502713121698,true,56.854345,41.364286,Shuya,2.4052777777777776
IAR,11.093613824232808,true,57.469966,42.129976,Kineshma,2.546388888888889
GOJ,9.532877125052078,true,56.494341,43.594383,Balakhna,0.7052777777777778
GOJ,10.317877125052078,true,55.399989,43.800003,Arzamas,1.4902777777777778
SVO,8.885538554723949,true,56.257405,34.327455,Rzhev,2.7177777777777776
SVO,9.891927443612838,true,57.583034,34.563099,Vyshnniy Volochek,3.7241666666666666
VOZ,10.28351290928485,true,52.580006,38.500017,Yelets,1.4147222222222224
IAR,10.304169379788364,true,57.524356,38.330001,Uglich,1.7569444444444444
DME,7.907966085749733,true,55.820015,38.979987,Orekhovo-Zuevo,1.6791666666666667
SVO,7.134982999168394,true,56.343058,36.698731,Klin,0.9672222222222222
SVO,7.333316332501727,true,56.33001,38.170011,Sergiyev Posad,1.1655555555555557
DME,7.6243549746386226,true,55.079983,38.78496,Kolomna,1.3955555555555557
DME,8.196854974638622,true,54.514333,37.094366,Aleksin,1.9680555555555554
DME,8.348243863527511,true,54.090018,38.219982,Novomoskovsk,2.1194444444444445
DME,8.416577196860844,true,54.014337,37.514289,Shchekino,2.187777777777778
RTW,12.593680413472923,true,50.016106,45.426106,Nikolayevsk,3.1933333333333334
KRR,10.62961773783044,true,44.468718,39.728727,Apsheronsk,1.6619444444444444
KRR,10.970173293385995,true,45.447083,40.582112,Kropotkin,2.0025
SKX,9.761572407020157,true,54.064334,44.924379,Ruzayevka,0.7166666666666667
TBW,10.265216200930809,true,52.657392,42.717434,Kirsanov,1.4183333333333332
TBW,9.959382867597476,true,52.899987,40.499998,Michurinsk,1.1125
UUA,10.792873442380634,true,54.459969,53.459982,Oktyabrskiy,0.9783333333333334
TBW,11.20132731204192,true,51.368711,42.088738,Borisoglebsk,2.354444444444445
CEK,12.784295437812796,true,54.368502,60.808526,Plast,2.106666666666667
MQF,15.93059428828153,true,54.945883,58.795884,Bakal,5.436944444444444
OVS,15.964999397544746,true,59.794786,60.484773,Krasnoturinsk,5.0649999999999995
KVX,10.268861323489896,true,58.55437,50.044377,Kirovo-Chepetsk,0.9369444444444445
OVS,14.740277175322525,true,60.156521,59.961549,Severouralsk,3.8402777777777777
OSW,11.216435588951157,true,51.200013,58.330021,Novotroitsk,0.5672222222222222
UUA,11.895095664602856,true,53.663015,52.433016,Buguruslan,2.0805555555555553
KUF,11.006975222497601,true,52.974323,49.724344,Chapayevsk,1.4144444444444444
KUF,11.42975300027538,true,53.169996,48.479976,Syzran,1.8372222222222223
KUF,10.653919666942047,true,53.119999,49.91994,Novokuybishevsk,1.061388888888889
NBC,10.373611240018205,true,55.699997,52.319948,Naberezhnyye Chelny,0.6730555555555555
KZN,10.678743932878744,true,55.840557,48.655004,Zelenodolsk,1.2744444444444445
UUA,10.340928997936189,true,54.598694,52.448726,Leninogorsk,0.5263888888888889
SGC,12.887665519448554,true,61.077653,72.702683,Nefteyugansk,1.1622222222222223
UUA,10.073984553491744,true,54.55433,52.794286,Bugulma,0.2594444444444444
KEJ,14.165992813909094,true,54.660009,86.169975,Leninsk Kuznetsky,1.0075
TOF,16.08205549899694,true,56.080025,86.040009,Anzhero Sudzhensk,3.0836111111111113
NOZ,14.026170423502059,true,54.000023,86.640024,Kiselevsk,0.6847222222222222
NOZ,15.076448201279836,true,53.233274,87.316675,Mundybash,1.7349999999999999
ABA,14.151109807060616,true,53.831325,91.22269,Chernogorsk,0.3586111111111111
ABA,16.92916536261617,true,52.669019,90.095369,Abaza,3.1366666666666663
KEJ,16.543215036131315,true,55.237674,84.377681,Toguchin,3.3847222222222224
PWQ,18.207289195816912,true,54.359226,77.274187,Kupina,5.708611111111111
KJA,15.713287053016781,true,55.96197,94.702788,Zaozernyy,2.2841666666666667
KJA,16.147453719683448,true,56.216477,89.518401,Bogotol,2.7183333333333333
HTA,23.209296610455052,true,51.870566,116.030633,Shilka,3.2930555555555556
UUD,19.85528283872673,true,51.282695,108.832675,Petrovsk Zabaykalskiy,2.6108333333333333
VVO,25.732972267040825,true,44.162303,133.282345,Arsenyev,3.0330555555555554
VVO,24.869361155929713,true,43.134872,133.134912,Partizansk,2.1694444444444443
CKH,19.93932509454922,true,74.898308,142.105011,Zemlya Bunge,0.3005555555555556
JXA,30.374443534640307,true,45.927286,133.722318,Dalnerechensk,5.977222222222222
PYJ,21.522706413934117,true,68.51663,107.799973,Put Lenina,6.759444444444444
JMU,31.271018496757442,true,48.999992,131.083306,Obluchye,6.907777777777778
GDX,26.991117370947244,true,61.633278,147.916697,Omchak,7.496944444444444
TIJ,26.04580020562814,true,30.764051,-116.00926,Vicente Guerrero,3.983611111111111
LTO,20.56759357832551,true,26.013333,-111.351663,Loreto,0.11027777777777777
PDS,21.254276530605587,true,28.329988,-100.849979,Allende,0.6880555555555555
LTO,22.943426911658843,true,25.040008,-111.659991,Ciudad Constitucion,2.486111111111111
PDS,21.85566541949448,true,27.949959,-101.219982,Nueva Rosita,1.2894444444444444
CUU,21.714042773170675,true,26.933355,-105.666636,Hidalgo del Parral,3.379722222222222
CJS,23.06409723151782,true,31.100025,-107.979983,Ascension,2.1811111111111114
TRC,18.68068013499924,true,25.570053,-103.500024,Gomez Palacio,0.2611111111111111
DGO,19.984430213103646,true,24.519988,-104.779997,Canatlan,1.1780555555555556
CUL,22.162872115345014,true,24.636045,-107.916215,Altata,0.8686111111111111
CEN,21.627943846019594,true,27.580008,-109.929993,Esperanza,0.33111111111111113
TUS,21.01432835297012,true,30.616618,-111.049951,Magdalena,2.8044444444444445
HMO,23.36517177507112,true,30.420015,-109.649984,Nacozari Viejo,4.441111111111111
ZCL,20.462264489846145,true,22.350017,-102.88001,Villanueva,1.6763888888888887
MTY,19.78907199498652,true,25.189999,-99.839989,Montemorelos,1.743611111111111
MTY,19.833516439430966,true,26.510021,-100.179968,Sabinas Hidalgo,1.7880555555555555
SLP,21.80266033574729,true,22.000012,-99.669999,Cardenas,3.1527777777777777
SLP,20.91766033574729,true,21.929991,-99.980006,Rio Verde,2.267777777777778
TAM,20.658910445388187,true,21.979988,-99.020013,Ciudad Valles,2.2311111111111113
CVM,21.95496286975897,true,22.733353,-98.950017,Ciudad Mante,2.3188888888888886
REX,19.618234919709977,true,26.079996,-98.300031,Reynosa,0.2225
TAM,18.561410445388187,true,22.318908,-97.836106,Ciudad Madero,0.13361111111111112
ZLO,21.684861888749307,true,19.770019,-104.369997,Autlan,2.205277777777778
UPN,23.703410310877178,true,19.079984,-102.350017,Apatzingan,1.2916666666666667
TPQ,21.354015765752916,true,21.819998,-105.220048,Santiago Ixcuintla,1.4416666666666667
PBC,19.726222356375946,true,18.900021,-98.449996,Atlixco,0.7136111111111112
PBC,21.57594457859817,true,18.19996,-98.049995,Acatlan,2.5633333333333335
VSA,19.81370789090897,true,18.400025,-93.229979,Paraiso,1.373888888888889
PBC,19.590389023042615,true,19.319995,-98.23001,Tlaxcala,0.5777777777777777
BJX,19.73282204499252,true,20.670016,-101.499991,Irapuato,0.8338888888888889
QRO,19.837127982392825,true,20.530025,-100.800008,Celaya,0.9788888888888889
ACA,20.841717582959202,true,17.549974,-99.50001,Chilpancingo,1.4858333333333333
TLC,23.883006926338233,true,18.370001,-99.539981,Iguala,2.6491666666666664
ACA,21.10616202740365,true,17.199995,-100.43003,Atoyac,1.7502777777777778
ZIH,21.379345412096125,true,17.249992,-100.679989,Tecpan,1.9941666666666669
QRO,19.422127982392826,true,20.379982,-100.000031,San Juan del Rio,0.5638888888888889
MTT,20.216179919912467,true,17.939976,-94.73999,Jaltipan,0.5452777777777779
JAL,21.706732714912377,true,18.850024,-97.129999,Orizaba,2.4641666666666664
JAL,19.50006604824571,true,19.529982,-96.919986,Xalapa,0.2575
JAL,21.62006604824571,true,20.216581,-96.783354,Nautla,2.3775
TGZ,19.84412845403131,true,16.749997,-92.633374,San Cristobal de Las Casas,1.2244444444444444
TAP,22.203205981778076,true,15.330006,-92.62999,Escuintla,1.2816666666666667
MID,18.55207265162697,true,21.09999,-89.279987,Motul,0.8672222222222222
MID,19.555128207182523,true,20.199993,-89.279987,Tekax,1.8702777777777777
MID,20.019850429404748,true,20.129972,-88.919984,Peto,2.335
MID,18.78457265162697,true,20.479976,-90.080016,Halacho,1.0997222222222223
IBA,13.75824214463916,true,7.629959,4.179993,Iwo,1.1172222222222221
IBA,14.127408811305827,true,7.970016,3.590003,Iseyin,1.486388888888889
SKP,6.074755866157848,true,42.00923,20.970079,Tetovo,0.7852777777777777
BEY,8.233649507648584,true,33.563028,35.368787,Saida,0.4358333333333333
GDN,5.140773903757966,true,54.18996,19.402681,Elblag,0.9783333333333334
KGD,8.942295209262566,true,53.800035,20.480031,Olsztyn,2.4655555555555555
KTW,4.583304405874015,true,50.350039,18.909998,Bytom,0.3119444444444444
KTW,5.643859961429571,true,50.68498,17.93135,Opole,1.3724999999999998
GUW,12.241709519498297,true,47.64824,53.326502,Maqat,2.018888888888889
PEE,13.331719698571362,true,59.669987,56.749962,Solikamsk,3.3455555555555554
PEE,13.97838636523803,true,59.064365,57.634301,Kizel,3.9922222222222223
TSE,14.801025473408524,true,52.499675,73.099713,Bestobe,4.819444444444445
TSE,11.759358806741858,true,50.579948,72.569927,Osakarovka,1.777777777777778
KGF,15.682193083164496,true,48.274869,72.859883,Aqadyr,3.378333333333333
PWQ,14.220622529150244,true,52.499908,78.149948,Sharbaqty,1.7219444444444443
UKK,14.861119828266448,true,50.631598,81.904964,Shemonaikha,1.6202777777777777
UKK,14.746397606044226,true,49.699898,83.424871,Serebryansk,1.5055555555555555
ALA,12.024566561643883,true,43.334137,76.82884,Boralday,0.6641666666666667
YIN,18.904839899747355,true,44.161554,79.98012,Zharkent,1.7111111111111112
ALA,12.260677672754994,true,43.36907,77.443789,Esik,0.9002777777777777
CIT,13.57411022250487,true,42.189917,69.87991,Lenger,0.86
CIT,15.33938800028265,true,43.516503,68.51989,Kentau,2.625277777777778
FNJ,21.435404171743524,true,38.251734,125.102069,Changyon,2.5552777777777775
FNJ,22.272904171743523,true,39.381303,127.251705,Munchon,3.392777777777778
YNY,70.63135579010812,true,39.028172,127.518562,Anbyon,49.58888888888889
GMP,73.65290504060685,true,37.963999,126.564409,Kaesong,54.53333333333333
FNJ,19.846515282854636,true,39.4236,125.938969,Sunchon,0.9663888888888889
NBS,24.708197887153503,true,40.81752,128.155319,Kimhyonggwon,3.6333333333333333
BYN,23.118111587194466,true,47.476881,101.450179,Tsetserleg,4.3983333333333325
SNN,3.19115089503793,true,52.703849,-8.864147,Shannon,0.19555555555555554
WAT,5.15400501837731,true,52.258295,-7.111928,Waterford,0.17277777777777778
KIR,3.3349220390566745,true,52.266692,-9.716653,Tralee,0.2822222222222222
BLQ,4.51896425175292,true,44.650025,10.919995,Modena,0.5811111111111111
CFN,6.343060159756957,true,54.650009,-8.116673,Donegal,1.2166666666666666
SUF,6.746839113464318,true,39.083337,17.123337,Crotone,1.5705555555555555
SUF,5.789616891242096,true,38.666592,16.10004,Vibo Valentia,0.6133333333333333
NAP,5.208439273314515,true,41.05996,14.337357,Caserta,0.4922222222222222
REG,7.399331769173169,true,38.114998,15.64136,Reggio di Calabria,0.14805555555555555
BRI,5.759948299025681,true,41.319996,16.270004,Barletta,0.8541666666666666
CIY,5.8126583422520595,true,36.930031,14.729995,Ragusa,0.47833333333333333
HFA,14.663001835282591,true,32.549989,35.849998,Irbid,1.6297222222222223
TRN,4.5241084653053765,true,44.929982,8.209979,Asti,0.9919444444444444
MXP,4.175336224309265,true,45.450002,8.61998,Novara,0.6147222222222222
LUG,6.103138483093577,true,45.810006,9.080004,Como,0.5175
TRS,4.546037790052478,true,46.070016,13.240008,Udine,0.5533333333333333
TSF,4.032715710311758,true,45.670015,12.240017,Treviso,0.1488888888888889
JGN,23.25359868922524,true,39.830035,97.729993,Yumen,1.1427777777777777
LHW,21.028653280810193,true,35.600009,103.200047,Linxia,1.953888888888889
NAY,23.38640478061864,true,39.540053,115.789976,Zhuozhou,1.1230555555555557
LCX,24.394938252011183,true,26.229987,117.580048,Sanming,1.7586111111111111
SZX,23.40540861690369,true,23.079972,114.399983,Huizhou,1.4052777777777776
SWA,24.834757322638776,true,23.680039,116.630028,Chaozhou,0.6744444444444445
EBU,7.823234858183677,true,46.033326,4.066666,Roanne,0.8636111111111112
LOH,25.977238906089976,true,-3.670023,-79.649981,Pinas,1.7858333333333334
GPS,26.449910428729517,true,-0.933342,-91.016651,Puerto Villamil,0.5902777777777778
SCY,25.790580074964055,true,-0.900011,-89.599968,Puerto Baquerizo Moreno,0.06222222222222222
GYE,24.799244665224798,true,-1.609993,-79.01002,Guaranda,2.888888888888889
CUE,24.535528666214212,true,-2.740002,-78.84003,Azogues,0.5594444444444445
GYE,23.714522443002576,true,-2.200035,-80.980003,Salinas,1.8041666666666667
CUE,26.466639777325323,true,-2.189958,-78.849978,Alausi,2.4905555555555554
UIO,21.88685797675499,true,-0.310021,-78.45995,Sangolqui,0.42833333333333334
EYP,23.06019956339299,true,5.719998,-72.940003,Sogamoso,2.461388888888889
SYQ,21.601036980707658,true,9.869978,-83.929978,Cartago,0.49972222222222223
EJA,20.94769729204269,true,7.089992,-73.849999,Barrancabermeja,0.2588888888888889
GLF,23.353426205786086,true,8.650026,-83.149974,Golfito,0.29055555555555557
FON,24.62362217398698,true,10.429995,-85.10001,Canas,1.7536111111111112
SAL,20.215997296989244,true,13.719975,-89.729986,Sonsonate,1.6152777777777778
SAL,20.810997296989242,true,13.880043,-88.630001,Sensuntepeque,2.210277777777778
SAL,20.498219519211467,true,13.483349,-88.183336,San Miguel,1.8975
CCC,17.89421443416168,true,21.839996,-78.761947,Ciego de Avila,1.6336111111111111
SCU,19.67254908124488,true,20.217227,-75.998808,Palma Soriano,0.8463888888888889
KIN,15.63272724824446,true,17.966615,-77.233281,May Pen,1.095
IBE,21.302987220809694,true,4.310007,-74.809992,Girardot,0.8597222222222223
KIN,15.22133835935557,true,17.983333,-76.949991,Spanish Town,0.6836111111111111
NVA,21.146264552554232,true,2.690002,-75.330012,Campoalegre,0.5047222222222223
IPI,21.889991013444295,true,1.089997,-77.61995,Tuquerres,0.6708333333333333
VGZ,21.56941023408389,true,1.149993,-76.629984,Mocoa,0.4891666666666667
PEI,20.900317125873784,true,4.74998,-75.910028,Cartago,0.3516666666666667
BAQ,19.54037219096765,true,10.639982,-74.919985,Sabanalarga,0.7588888888888888
BAQ,18.90009441318987,true,10.920017,-74.769995,Soledad,0.1186111111111111
TUA,24.297265931571012,true,0.609974,-77.84004,San Gabriel,0.6108333333333333
CTG,19.48357984848806,true,10.260031,-75.349985,Arjona,0.6622222222222223
CZU,22.386130938164758,true,9.229991,-74.740022,Magangue,1.248888888888889
VUP,21.470169874788365,true,10.479992,-73.25001,Valledupar,0.1411111111111111
VVC,21.820074045873863,true,4.089995,-72.960028,Puerto Lopez,1.4266666666666665
HAV,15.360366640163159,true,22.836137,-82.028027,Guines,0.88
SJE,20.768913494463018,true,2.569984,-72.639995,San Jose del Guaviare,0.03305555555555555
HAV,14.848699973496492,true,22.891121,-82.499083,San Antonio de los Banos,0.36833333333333335
FKB,3.6918111121909685,true,48.999992,8.399993,Karlsruhe,0.5661111111111111
KSF,8.925480096274491,true,51.300007,9.50003,Kassel,0.3119444444444444
BRE,3.6698280151978424,true,53.129999,8.220004,Oldenburg,0.5938888888888889
ERF,3.476779705363721,true,50.970053,11.029962,Erfurt,0.15888888888888889
ZAG,4.9848604842077,true,45.487209,15.547774,Karlovac,0.7097222222222223
RJK,4.686644263758667,true,45.329984,14.450012,Rijeka,0.5119444444444444
AGB,7.030012161448559,true,48.350006,10.899996,Augsburg,0.1938888888888889
ERF,4.7176130386970545,true,50.266607,10.966607,Coburg,1.3997222222222223
NUE,3.5776145567488653,true,49.470015,10.99999,Furth,0.1786111111111111
LNZ,5.44154720124034,true,48.980019,14.460037,Ceske Budejovice,1.6013888888888888
PRG,5.265910547823847,true,50.79996,15.079999,Liberec,1.5341666666666667
DRS,4.667465187867804,true,50.829984,12.919976,Chemnitz,1.03
BNX,7.803929426206269,true,45.160278,18.015582,Slavonski Brod,1.2780555555555557
TAY,9.523077295978023,true,59.399978,27.283337,Kohtla-Jarve,2.0505555555555555
LXA,23.077336015240927,true,28.950002,89.63333,Gyangze,3.559166666666667
YCU,22.32759878298397,true,34.795252,109.937775,Dali,2.225
TYN,21.374557719868697,true,37.869974,113.570008,Yangquan,1.3099999999999998
XFN,21.408885618017724,true,32.570039,110.779998,Shiyan,2.2308333333333334
XFN,20.791941173573278,true,32.520016,111.500005,Danjiangkou,1.6138888888888887
YIH,21.96332393065619,true,30.320021,112.229987,Shashi,1.403888888888889
WUH,22.096942604952137,true,31.269989,113.670002,Anlu,1.2647222222222223
TCZ,19.4884106100204,true,25.033316,98.466589,Tengchong,0.28888888888888886
WNH,23.4782290344196,true,23.361945,103.406132,Mengzi,2.2086111111111113
KMG,20.775788956550958,true,25.036416,101.545574,Chuxiong,1.8986111111111112
DAT,20.481027573133154,true,40.594407,115.024338,Xuanhua,2.4663888888888885
CGO,22.30348023864777,true,33.570004,114.02998,Luohe,1.7869444444444444
CHG,18.92681253545811,true,41.810018,120.760009,Beipiao,0.7483333333333333
DLC,19.63916660017993,true,39.625913,121.995954,Wafangdian,1.3269444444444443
TSN,21.534212446944572,true,39.231958,117.776986,Hangu,0.9458333333333333
YTY,19.61540513222667,true,32.399998,119.430012,Yangzhou,0.5713888888888888
LYI,19.707022243099463,true,34.380006,118.350026,Xinyi,1.1616666666666666
HYN,20.694135989996763,true,28.850008,121.119987,Linhai,0.8608333333333333
HYN,20.186358212218988,true,28.65002,121.250004,Huangyan,0.35305555555555557
CGQ,21.56811610510703,true,44.269997,123.989992,Changling,2.652222222222222
HRB,26.18371253746861,true,45.499999,124.299999,Daan,4.4061111111111115
NBS,24.13625344270906,true,41.679974,125.749988,Tonghua,3.061388888888889
NBS,23.092642331597947,true,41.900012,126.429998,Baishan,2.017777777777778
YNJ,19.594258373016313,true,42.882304,129.512756,Yanji,0.1613888888888889
TAK,20.411951791713932,true,34.344737,134.044779,Takamatsu,0.37138888888888894
TKS,21.01100804051406,true,34.06739,134.5525,Tokushima,0.20972222222222223
JGD,29.22873484563258,true,50.78332,121.516655,Ergun Zuoqi,3.8277777777777775
HET,22.701290159269305,true,41.549439,113.533886,Shangdu,2.9588888888888887
JGD,26.090123734521466,true,50.566667,123.716676,Orongen Zizhiqi,0.6891666666666667
NDG,21.777518786410074,true,48.000002,122.719992,Zalantun,2.5530555555555554
HET,20.557679048158192,true,41.095514,111.440836,Wuchuan,0.8152777777777778
RLK,22.568816721544096,true,40.8847,107.140013,Hanggin Houqi,0.9133333333333333
HRB,24.193156981913056,true,46.69003,126.100044,Qinggang,2.4155555555555557
HRB,24.2051014263575,true,46.399996,125.32004,Anda,2.4275
NDG,19.543352119743407,true,47.160053,123.80003,Angangxi,0.3188888888888889
NDG,19.857241008632297,true,47.209972,123.610015,Hulan Ergi,0.6327777777777778
HRB,25.533156981913056,true,46.871853,127.511844,Qingan,3.7555555555555555
NDG,22.529463230854518,true,47.601835,126.081854,Baiquan,3.305
HRB,25.297045870801945,true,47.245991,127.105978,Suileng,3.5194444444444444
JXA,25.445276867973643,true,45.281899,130.251884,Linkou,1.0480555555555555
TOY,20.51296820608946,true,36.699994,137.230011,Toyama,0.16416666666666666
TOY,20.757412650533904,true,36.670021,136.999999,Takaoka,0.4086111111111111
ITM,23.154910898799926,true,35.006402,135.867407,Otsu,0.7875
MMJ,25.161896579893792,true,36.3927,139.072689,Maebashi,2.236388888888889
IBR,23.723073248499883,true,36.549977,139.870005,Utsunomiya,1.1252777777777778
FKS,29.476704189458523,true,37.409976,140.38,Koriyama,0.5186111111111111
PND,29.97915413662109,true,16.200005,-89.440004,San Luis,7.765
GUA,22.074477787977706,true,15.469998,-90.379998,Coban,3.4855555555555555
GUA,20.400311121311038,true,14.289992,-89.900001,Jutiapa,1.811388888888889
PAP,20.04461232889055,true,18.466611,-71.416633,Neiba,1.8727777777777777
STI,18.98722277755678,true,19.216591,-70.516585,La Vega,0.4472222222222222
STI,19.450000555334558,true,19.299996,-70.250012,San Francisco de Macoris,0.91
CAY,16.76667079012884,true,4.729981,-52.330021,Roura,0.34527777777777774
CAY,19.049170790128837,true,5.380019,-52.959982,Sinnamary,2.6277777777777778
IXC,17.298544129063988,true,31.100025,77.166597,Simla,1.6969444444444444
DEL,13.60674092443005,true,28.450006,77.019991,Gurgaon,0.3988888888888889
DEL,14.288963146652272,true,28.999999,77.019991,Sonipat,1.081111111111111
DEL,14.332296479985605,true,28.900005,76.580018,Rohtak,1.1244444444444446
DEL,15.490907591096715,true,29.169988,75.725031,Hisar,2.2830555555555554
DEL,14.880074257763383,true,28.81001,76.125007,Bhiwani,1.672222222222222
IXC,16.45576635128621,true,30.320021,76.820003,Ambala,0.8541666666666666
SXR,17.954085077698796,true,34.299959,74.466658,Sopore,0.8883333333333333
BOM,14.745932573985012,true,19.250232,73.160175,Kalyan,0.7333333333333333
STV,18.202759477788824,true,20.266578,73.016618,Silvassa,1.8141666666666665
IXU,19.11374989407033,true,21.019995,75.830038,Bhusawal,2.636388888888889
DMU,22.358364709715897,true,26.749981,94.216667,Jorhat,1.8825
DNR,3.505419576495504,true,48.516663,-2.783303,St.-Brieuc,0.9241666666666667
PIS,3.0747632032865324,true,46.583292,0.333277,Poitier,0.15527777777777776
MRS,4.0584875512304075,true,43.519991,5.449993,Aix-en-Provence,0.4041666666666667
PGF,3.8179542263624104,true,42.699989,2.899967,Perpignan,0.1388888888888889
NTE,4.167664163764616,true,47.480008,-0.53003,Angers,1.3433333333333333
CFE,5.365731544333326,true,45.779982,3.080008,Clermont-Ferrand,0.1986111111111111
LIL,6.344715160075129,true,50.283325,2.783334,Arras,0.6677777777777778
ORY,3.216977616569956,true,48.533302,2.666648,Melun,0.6038888888888889
DLE,9.07661795248732,true,47.229997,6.030009,Besancon,0.7422222222222222
PUQ,33.800578457014744,true,-52.649979,-71.466604,Rio Verde,1.4219444444444445
CPO,33.429091644024254,true,-27.480042,-70.279984,Tierra Amarilla,1.4244444444444444
LSC,33.066037278881325,true,-31.180023,-70.999992,Combarbala,3.026111111111111
SCL,24.3549555388426,true,-33.599979,-70.699985,San Bernardo,0.4036111111111111
SCL,25.213288872175934,true,-33.029988,-71.539985,Vina del Mar,1.2619444444444445
SCL,25.122733316620376,true,-32.750005,-70.720009,San Felipe,1.1713888888888888
SCL,25.484399983287044,true,-32.459997,-71.240029,La Ligua,1.5330555555555556
SCL,25.270511094398156,true,-32.879971,-71.260002,Quillota,1.3191666666666668
ZCO,27.597005011088182,true,-38.740027,-72.960028,Nueva Imperial,0.6119444444444445
ZAL,27.866727843276877,true,-39.370014,-72.629996,Loncoche,0.7063888888888888
ZCO,28.023393899977073,true,-39.280046,-72.229995,Villarica,1.0383333333333333
ZAL,28.4764500654991,true,-39.216591,-73.212338,Tolten,1.3161111111111112
ZCO,29.687005011088182,true,-38.433327,-71.233285,Lonquimay,2.7019444444444445
ZCO,28.08228278886596,true,-37.959971,-72.430008,Collipulli,1.097222222222222
ZOS,27.889535239212382,true,-40.289958,-73.089968,La Union,0.5588888888888889
ZCO,28.60394945553263,true,-37.790007,-72.710017,Angol,1.618888888888889
ZOS,27.77759079476794,true,-40.340033,-72.960028,Rio Bueno,0.4469444444444444
CCP,27.187915400651377,true,-37.02995,-73.160015,Coronel,0.5213888888888889
CCP,26.85124873398471,true,-36.716688,-73.116659,Talcahuano,0.18472222222222223
CCP,28.155970956206932,true,-36.280022,-72.530002,Quirihue,1.4894444444444443
CCP,27.963193178429155,true,-37.48,-73.340004,Curanilahue,1.2966666666666666
ZCO,29.061727233310407,true,-37.670015,-72.019982,Santa Barbara,2.0766666666666667
SCL,25.5624555388426,true,-34.580022,-70.989967,San Fernando,1.6111111111111112
SCL,26.90467776106482,true,-34.380035,-71.999983,Pichilemu,2.953333333333333
PMC,27.918549694877747,true,-41.329998,-72.99,Puerto Varas,0.4380555555555556
PMC,28.335494139322194,true,-41.752201,-73.141591,Calbuco,0.855
PMC,30.020494139322192,true,-42.480762,-73.762334,Castro,2.54
PMC,30.352438583766638,true,-42.610023,-73.80995,Chonchi,2.8719444444444444
CCP,28.984026511762487,true,-35.839997,-71.589982,Linares,2.3175000000000003
CCP,28.923193178429155,true,-35.960041,-72.319989,Cauquenes,2.256666666666667
ATH,6.548109115683796,true,37.950021,23.69999,Piraiavs,0.5063888888888889
VOL,8.307370188005853,true,39.36996,22.95001,Volos,0.5194444444444445
CHQ,6.705593722112452,true,35.512211,24.015578,Hania,0.3111111111111111
KVA,8.180544744001232,true,40.941211,24.40176,Kavala,0.4472222222222222
KUT,10.187188830314476,true,42.249991,42.729991,Kutaisi,0.5688888888888889
AXD,8.790496110591516,true,40.848619,25.87441,Alexandroupoli,0.13583333333333333
TBS,13.575793149053549,true,42.232498,43.975031,Tskhinvali,1.603888888888889
SVL,7.841210785899042,true,61.866623,28.883343,Savonlinna,0.30888888888888894
POR,7.065047178203327,true,61.478895,21.774939,Pori,0.15444444444444447
KZO,18.732205909638502,true,45.487726,64.078042,Zhosaly,2.2463888888888888
SYZ,13.566629241893576,true,29.801448,52.821468,Marv Dasht,1.228611111111111
AWZ,15.804756068147052,true,31.979998,49.299926,Masjed Soleyman,1.7655555555555555
IKA,10.400243488077939,true,35.31659,51.646604,Varamin,1.0377777777777777
GBT,19.009407014894197,true,36.422879,54.962888,Shahrud,2.895277777777778
KHD,17.78085269518795,true,33.919957,48.800008,Borujerd,1.5572222222222223
BSR,12.30390106058945,true,30.389164,47.707982,Az Aubayr,0.7027777777777777
NJF,11.99075380881701,true,31.988938,44.923966,Ad Diwaniyah,0.9572222222222222
BSR,14.970289949478339,true,31.417525,46.177222,Ash Shatrah,3.3691666666666666
HDM,17.879528170532275,true,34.319984,48.849979,Malayer,1.4808333333333332
RAS,19.131265084258985,true,36.670021,48.500026,Zanjan,3.135
OMH,16.952939223164982,true,37.529995,44.999982,Urmia,0.35472222222222227
TBZ,12.708995873868753,true,38.482908,47.062905,Ahar,1.9866666666666668
SDG,16.43861025167821,true,35.300002,47.020013,Sanandaj,0.18333333333333332
IIL,19.70331699562709,true,33.743611,45.546357,Mandali,3.2591666666666668
BJB,16.61648688263683,true,37.469998,57.320005,Bojnurd,0.06361111111111112
KER,17.038874021875333,true,29.46997,55.730024,Sirjan,2.203611111111111
LUH,17.20195990846052,true,31.519974,75.980003,Hoshiarpur,1.531388888888889
JAI,17.381242241858505,true,26.449999,74.639981,Ajmer,1.7872222222222223
AGR,20.080665666026857,true,27.599981,78.050006,Hathras,0.8883333333333333
LKO,17.40976354232885,true,27.630005,80.749996,Sitapur,1.4961111111111112
DHI,20.953994773967537,true,28.639995,79.810002,Pilibhit,1.5833333333333333
AGR,22.005110110471303,true,28.030006,79.089994,Budaun,2.812777777777778
AGR,19.97427677713797,true,27.149982,78.394946,Firozabad,0.7819444444444444
AGR,20.136776777137968,true,27.499987,77.670029,Mathura,0.9444444444444444
DEL,14.67535203554116,true,28.410371,77.848416,Bulandshahr,1.4675
DEL,14.47285203554116,true,28.743658,77.762788,Hapur,1.2650000000000001
DED,17.428116536017406,true,29.485008,77.69504,Muzaffarnagar,1.8727777777777777
IXB,18.721733437651917,true,27.33333,88.616648,Gangtok,1.638611111111111
KRP,6.3977913679590435,true,56.433337,9.399984,Viborg,0.3913888888888889
BGW,14.55131932848548,true,33.420013,43.299982,Ar Ramadi,1.7091666666666667
BGW,14.08020821737437,true,32.778631,44.289999,Al Musayyib,1.2380555555555555
OSI,6.701488463299992,true,46.070016,19.680028,Subotica,2.1005555555555557
IMP,25.49951460836482,true,-5.809996,-46.149984,Grajau,3.638888888888889
THE,22.25069443052395,true,-5.25003,-44.519981,Presidente Dutra,3.448611111111111
THE,18.994861097190615,true,-5.114999,-42.844966,Timon,0.19277777777777777
BEL,21.795647146974105,true,-1.190019,-47.179999,Capanema,2.018888888888889
MAB,24.99471090091363,true,-5.120012,-49.300025,Itupiranga,0.8230555555555555
JPR,28.10140152489938,true,-11.640027,-61.209995,Pimenta Bueno,2.501111111111111
DOU,26.443152112818023,true,-22.530009,-55.729968,Ponta Pora,1.8786111111111112
DOU,26.134263223929132,true,-21.610013,-55.180028,Maracaju,1.5697222222222222
BYO,24.4309751841492,true,-21.479943,-56.15002,Jardim,0.9647222222222223
ARU,24.297561445813997,true,-20.790011,-51.720006,Tres Lagoas,1.801111111111111
IPN,23.85982325438992,true,-18.780005,-42.950025,Guanhaes,2.5791666666666666
IZA,23.043750973392175,true,-21.530018,-42.640044,Leopoldina,1.6488888888888888
PLU,23.661542453607737,true,-19.980035,-43.850021,Nova Lima,0.5549999999999999
SJK,28.53717655502089,true,-22.220002,-45.940023,Pouso Alegre,2.7233333333333336
PLU,24.28626467582996,true,-20.06003,-44.570029,Itauna,1.1797222222222221
IPN,22.70232325438992,true,-19.790021,-42.139997,Caratinga,1.4216666666666666
CNF,23.168267465588837,true,-18.239986,-43.609984,Diamantina,4.148055555555556
BPS,25.12479480714968,true,-17.839959,-40.350028,Nanuque,5.006111111111111
IZA,23.316806528947733,true,-21.220011,-43.77,Barbacena,1.9219444444444445
RAO,23.855669642358013,true,-21.290033,-46.70995,Guaxupe,2.118333333333333
IZA,24.216528751169953,true,-21.130042,-44.249997,Sao Joao del Rei,2.8216666666666668
IZA,23.86208430672551,true,-21.130042,-42.389981,Muriae,2.467222222222222
RAO,24.070391864580237,true,-20.710016,-46.609982,Passos,2.333055555555555
PLU,24.584042453607736,true,-20.670019,-43.789999,Conselheiro Lafaiete,1.4775
PLU,26.18987578694107,true,-20.460006,-45.430028,Formiga,3.0833333333333335
SJP,23.448725261242963,true,-20.030006,-48.940021,Frutal,1.7191666666666667
SJP,24.453447483465187,true,-19.729973,-50.200021,Iturama,2.723888888888889
UDI,23.32999395785522,true,-18.970019,-49.459989,Ituiutaba,1.9927777777777778
UDI,21.923882846744107,true,-18.640013,-48.199988,Araguari,0.5866666666666667
VDC,23.46235825986993,true,-16.170035,-40.700007,Almenara,3.4294444444444445
URG,29.670619396916788,true,-30.880041,-55.530006,Santana do Livramento,3.499722222222222
POA,21.48798830555564,true,-29.919997,-51.179987,Canoas,0.26416666666666666
URG,28.015063841361233,true,-30.38002,-56.459949,Quarai,1.8441666666666667
RIG,26.585713488656673,true,-33.520035,-53.369983,Santa Vitoria do Palmar,2.9438888888888886
PET,24.63191852781048,true,-31.369986,-51.980016,Sao Lourenco do Sul,1.0394444444444444
CXJ,24.385870151311515,true,-29.360031,-50.81001,Canela,1.25
RIA,26.510333214161882,true,-30.320024,-54.320028,Sao Gabriel,2.8786111111111112
RIA,26.13033321416188,true,-30.250002,-54.920018,Rosario do Sul,2.498611111111111
RIA,25.41061099193966,true,-30.029964,-52.909985,Cachoeira do Sul,1.778888888888889
POA,22.297988305555638,true,-29.879999,-50.269991,Osorio,1.0741666666666667
RIA,25.816444325272993,true,-29.710035,-52.44004,Santa Cruz do Sul,2.1847222222222222
SRA,25.594187935164644,true,-28.410011,-54.959989,Sao Luiz Gonzaga,1.7036111111111112
GEL,24.006954824862525,true,-28.300044,-54.280031,Santo Angelo,0.2033333333333333
PFB,21.932370048592105,true,-28.290019,-52.800044,Carazinho,0.8297222222222221
ERM,27.14059106040793,true,-27.630007,-52.269998,Erechim,0.11361111111111111
CAC,24.71536090763657,true,-24.089965,-54.26998,Guaira,1.7422222222222221
JCB,27.30377747545388,true,-26.48,-51.999989,Palmas,2.4322222222222223
LDB,23.136565778392296,true,-23.410006,-51.43005,Arapongas,0.6191666666666666
CWB,21.452469940701192,true,-25.527876,-48.534453,Paranagua,1.0727777777777776
CWB,20.504414385145637,true,-25.57003,-49.180006,Sao Jose dos Pinhais,0.12472222222222222
GPB,22.855356072145746,true,-25.380015,-51.480021,Guarapuava,0.09416666666666668
LDB,23.42184355617007,true,-23.549998,-51.470021,Apucarana,0.9044444444444444
CWB,22.148581051812304,true,-26.100023,-49.790021,Rio Negro,1.768888888888889
CWB,21.476358829590083,true,-25.760044,-49.729998,Lapa,1.0966666666666667
CWB,22.423303274034527,true,-24.790026,-50.009981,Castro,2.043611111111111
GPB,24.252022738812414,true,-25.470036,-50.659967,Irati,1.4908333333333335
MII,24.294438554545533,true,-23.159944,-49.979983,Jacarezinho,1.9597222222222221
LDB,25.122676889503406,true,-24.32995,-50.619996,Telemaco Borba,2.605277777777778
JCB,26.145999697676103,true,-27.230032,-52.030013,Concordia,1.2744444444444445
NVT,21.38110098322195,true,-26.920025,-49.089986,Blumenau,0.8644444444444445
NVT,21.29693431655528,true,-27.129986,-48.930021,Brusque,0.7802777777777778
CCM,23.56938833725593,true,-28.940005,-49.499987,Ararangua,0.6877777777777777
JOI,21.364479718963253,true,-26.48,-49.099985,Jaragua do Sul,0.9352777777777778
CCM,23.865777226144818,true,-28.480033,-49.020016,Tubarao,0.9841666666666666
CCM,24.204110559478153,true,-28.480033,-48.779979,Laguna,1.3225
JCB,24.908221919898324,true,-27.170035,-51.499968,Joacaba,0.03666666666666667
CFC,22.946607455738132,true,-26.770008,-51.020023,Cacador,0.19194444444444445
CFC,25.293829677960353,true,-26.179967,-50.400009,Canoinhas,2.5391666666666666
FOR,18.22349480620994,true,-4.940023,-37.979992,Russas,2.2491666666666665
FOR,21.636272583987715,true,-2.899992,-40.850024,Camocim,5.661944444444444
JDO,21.216127281783095,true,-6.359988,-39.299989,Iguatu,2.5894444444444447
FOR,19.72349480620994,true,-3.690022,-40.350028,Sobral,3.7491666666666665
FOR,18.477661472876605,true,-4.969995,-39.020006,Quixada,2.503333333333333
FOR,17.65821702843216,true,-4.350033,-39.309988,Caninde,1.6838888888888888
THE,20.914583319412838,true,-4.250039,-42.299987,Barras,2.1125
THE,20.24930554163506,true,-4.82003,-42.18002,Campo Maior,1.4472222222222222
MCZ,18.933068551706747,true,-9.480004,-35.839968,Rio Largo,0.2486111111111111
MCZ,20.853346329484523,true,-9.416597,-36.616639,Palmeira dos Indios,2.1688888888888886
BPS,20.690350362705235,true,-16.280002,-39.02998,Santa Cruz Cabralia,0.5716666666666667
PAV,20.318044569585847,true,-9.330659,-38.265659,Paulo Afonso,0.21611111111111111
VDC,22.22458048209215,true,-14.21,-41.670025,Brumado,2.191666666666667
IOS,23.928995004770538,true,-13.529989,-39.97,Jaguaquara,4.102777777777778
IOS,21.308439449214983,true,-14.30002,-39.330013,Ubaitaba,1.4822222222222223
VDC,21.671802704314373,true,-15.249988,-40.249983,Itapetinga,1.6388888888888888
CAW,24.903692473382325,true,-20.850008,-41.129981,Cachoeiro de Itapemirim,1.7277777777777779
GIG,19.045945068316062,true,-22.560033,-44.16995,Barra Mansa,1.6102777777777777
GIG,17.749000623871616,true,-22.769994,-43.309977,Duque de Caxias,0.31333333333333335
GIG,17.90650062387162,true,-22.740022,-43.469967,Nova Iguacu,0.4708333333333333
CFB,23.828440664978604,true,-22.889987,-42.039977,Cabo Frio,0.1522222222222222
SDU,21.926155903660742,true,-22.900012,-43.09999,Niteroi,0.4358333333333333
MEA,25.450406022886167,true,-22.379992,-41.789992,Macae,0.13083333333333333
